ID,Name in the language,Name in English,Alternate names,Countries,Country codes,Description of the location(s),Latitude,Longitude,Degree of endangerment,Number of speakers,Date/accuracy of estimate,Sources
01790,,!Gan!ne,"!Gã!ne, Seroa, related to //Ku //’e",South Africa,ZA,,-31.3911,26.6748,extinct,0,2005,Anthony Traill
01787,,!Xoon,"Xóõ, West-!Xóõ = Nambian Taa, East-!Xóõ = Botswanan Taa",Botswana,BW,"Pointer at centre of settlment area, Botswana (3500?) and Namibia (500).",-24.1367,20.1049,definitely endangered,4000,"West-!Xóõ spoken by about 500 in Namibia (Christfried Naumann), and maybe 3500 speak East-!Xóõ (Anthony Trail). Ongoing research of a research group with Tom Güldemann, Christfried Naumann, Alena Witklack-Makarevich.","Christfried Naumann (p.c.), Tom Güldemann (p.c.)"
00112,,’Ongota,Birale,Ethiopia,ET,,5.3207,37.2244,critically endangered,8,2007,"Graziano Savà, Mauro Tosco, Aklilu Yilma, Harold Fleming"
01472,,’Langthang Tibetan,_______ ____,Nepal,NP,"near ’Langthang Him_l, in the northern part of B_gmat_ zone.",28.2100,85.5697,definitely endangered,0,unknown number of speakers,"Driem, George van. 2001. Languages of the Himalayas. Volumes 1 and 2. Hand-book of Oriental Studies. Section Two: India. Leiden/Boston/Köln: Brill.Driem, George van. 2007. ’South Asia and the Middle East’, pp. 283-347 in Christopher Moseley (ed.) Encyclopedia of the World’s Endangered Languages. London/New York: Routledge.ethnologue.com"
01479,,’Loke Tibetan,,Nepal,NP,Mustang district,28.8200,83.7721,definitely endangered,0,unknown number of speakers,"Driem, George van. 2001. Languages of the Himalayas. Volumes 1 and 2. Hand-book of Oriental Studies. Section Two: India. Leiden/Boston/Köln: Brill.Driem, George van. 2007. ’South Asia and the Middle East’, pp. 283-347 in Christopher Moseley (ed.) Encyclopedia of the World’s Endangered Languages. London/New York: Routledge.ethnologue.com"
01445,,’Narpa,Nar Phu; Narphu,Nepal,NP,’Nar and Phu valleys,28.7315,84.2610,definitely endangered,533,1971,"Driem, George van. 2001. Languages of the Himalayas. Volumes 1 and 2. Hand-book of Oriental Studies. Section Two: India. Leiden/Boston/Köln: Brill.Driem, George van. 2007. ’South Asia and the Middle East’, pp. 283-347 in Christopher Moseley (ed.) Encyclopedia of the World’s Endangered Languages. London/New York: Routledge.ethnologue.com"
01579,,’Nyenkha,Henkha; Mangdebi-kha; Monpa; Ole Mönpa,Bhutan,BT,Mangde river valley,27.4595,90.4119,vulnerable,10000,1991 census,"Driem, George van. 1991. Report on the First Linguistic Survey of Bhutan. Thimphu: Royal Government of Bhutan.Driem, George van. 2001. Languages of the Himalayas. Volumes 1 and 2. Hand-book of Oriental Studies. Section Two: India. Leiden/Boston/Köln: Brill.Driem, George van. 2007. ’South Asia and the Middle East’, pp. 283-347 in Christopher Moseley (ed.) Encyclopedia of the World’s Endangered Languages. London/New York: Routledge.ethnologue.com"
01446,,’Nyishangba,,Nepal,NP,Manang valley,28.6423,84.1017,definitely endangered,2000,Van Driem 2007,"Driem, George van. 2001. Languages of the Himalayas. Volumes 1 and 2. Hand-book of Oriental Studies. Section Two: India. Leiden/Boston/Köln: Brill.Driem, George van. 2007. ’South Asia and the Middle East’, pp. 283-347 in Christopher Moseley (ed.) Encyclopedia of the World’s Endangered Languages. London/New York: Routledge.ethnologue.com"
00168,,/’Auni,,South Africa,ZA,,-26.0105,20.3630,extinct,0,2005,Anthony Traill
01740,,//Ani,,Botswana,BW,Settlements along the Okavango delta panhandle.,-18.6462,22.1319,definitely endangered,1000,2003,Matthias Brenzinger
01721,,//Gana,,Botswana,BW,"Pointer in centre of settlement region. Main //Gana settlements Kxoensakere (New Xade) (550), Kaudwane (150), Someto (100), Xere (100). Some scattered on farms.",-21.7824,21.8971,vulnerable,1550,2008,Junko Maruyama (p.c.)
01789,,//Ku //’e,Seroa,South Africa,ZA,Border area of Lesotho and South Africa,-29.9739,27.0812,extinct,0,2005,Anthony Traill
01791,,//Kx’au,,South Africa,ZA,,-32.2896,21.7968,extinct,0,2005,Anthony Traill
00167,,//Xegwi,,South Africa,ZA,"Lake Chrissie, Eastern Transvaal.",-25.3500,30.9900,extinct,0,2002,"Anthony Traill, 2002’ The Khoesan languages’, in Rajend Mestrie (ed.) Language of South Africa. CUP"
01720,,/Gui,G/wi,Botswana,BW,"Pointer at main settlement New Xade (900), others Khekhenye (less than 100), Kageae (20), and Kaotoane daane (12).",-21.8385,21.7858,vulnerable,1000,2008,Hirosi Nakagawa (p.c.)
01750,,/Xaise,Language belonging to the Shua-Tshwa cluster.,Botswana,BW,Pointer at settlement.,-21.2458,26.1776,critically endangered,200,2008,Andrew Chebanne (p.c.)
00173,,/Xam,,South Africa,ZA,,-32.2853,20.7590,extinct,0,2008,Dorothea Bleek
01745,,=/Hoa,"_Hõã, Eastern _Hõã",Botswana,BW,Pointer in geographic centre of settlement area.,-24.1668,24.4885,critically endangered,140,2008,Kemmonye Monaka (p.c.)
02239,,A’ingae / Cofan (Colombia),"Kofan, A’i, A’ingae, Kofane, Cofan",Colombia,CO,"Colombia-Ecuador border area. In Colombia, Department of Putumayo, in Orito, Valle del Guamuez and San Miguel.",0.4525,-76.9191,severely endangered,379,Fundación Zio A’I Unión de Sabiduría - 2008. Total population 1194,"Fundación Zio-A’I Unión de Sabiduría - Censo - 2008Tobar, María Elena. Dwswnga a’indekhwmbe ingi ayafangae ateswpa tsaiki: Gramática Pedagógica para Bachillerato (6 ° a 11 °). 2008Tobar, María Elena. Ingi ayafangae ateswpa tsaiki: Gramática Pedagógica de la lengua Cofán de cero a quinto grado de escolaridad. 2004"
02188,,A’ingae / Cofan (Ecuador),"Cofan, Kofan (see Colombia)",Ecuador,EC,"In Ecuador: Province of Sucumbíos, Lago Agrio county, Dureno and Jambelí parishes; Cascales county, El Dorado parish; Cuyabeno county, Cuyabeno parish; Sucumbíos county, La Bonita parish. Major settlements are in Sinangue, Dovuno, Dureno and Zabalo,",0.0659,-76.7065,definitely endangered,700,"2002 Census developed by the Cofan FederationCODENPE/SIDENPE 2004","- CODENPE - PRODEPINE, Diagnóstico Participativo y Plan de Desarrollo Local de la Nacionalidad Cofán, 2002-2205. - Fischer, Rafael. 2005. “Documentación y descripción gramatical del A’ingae (Cofán)”. (Conferencia presentada en la Universidad Católica, Quito, octubre 07, 2005) (versión digital).- Juncosa, José. 1999. Mapa lingüístico de la Amazonia ecuatoriana. Quito: Abya-Yala."
01500,,A’tong,,India,IN,,25.2844,91.1755,severely endangered,0,unknown number of speakers,"Burling, Robbins. 2003. ’The Tibeto-Burman languages of northeastern India’, pp. 169-191 in Graham Thurgood and Randy J. LaPolla (eds), The Sino-Tibetan Languages. London: Routledge."
00153,,Aasax,Asa,United Republic of Tanzania,TZ,,-5.1948,37.7380,extinct,0,1976,Maarten Mous
03164,,Abaga,,Papua New Guinea,PG,"North of Henganofi, around Kisi, Eastern Highlands Province, eastern part of the Goroka District",-6.1883,145.5976,critically endangered,5,1994 (150 reported in the 1960s),"Wurm, Stephen A. 2007. ’Australia and the Pacific’, pp. 424-557 in Christopher Moseley (ed.) Encyclopedia of the World’s Endangered Languages. London/New York: Routledge."
02665,,Abai Sungai,,Malaysia,MY,"Sabah, Malaysia",5.5870,118.3695,definitely endangered,400,2000,Grimes 2000
01393,,Abaza,Tapanta,Russian Federation; Turkey,RU;TR,"parts of the Karachay-Cherkes Republic in the Russian Federation; the Ashkharawa dialect, officially subsumed under Abaza, belongs to Abkhaz",44.1556,41.9368,definitely endangered,31000,"2002 Schulze estimate; the 2002 census of the Russian Federation lists 38,247 speakers of Abaza and the Ashkharawa dialect of Abkhaz collectively, which may also include other Abkhaz speakers; perhaps a few thousand speakers in Turkey","_. _. _______: __________ ____. — _____ __________ _________ _ ________ __________: ____________ I. ______: _____, 1997. | Wolfgang Schulze: Abasinisch. — Lexikon der Sprachen des europäischen Ostens. Herausgegeben von Milo_ Okuka unter Mitwirkung von Gerald Krenn. Wieser Enzyklopädie des europäischen Ostens 10; Klagenfurt: Wieser, 2002. 837–841."
01392,,Abkhaz,,Georgia; Russian Federation; Turkey,GE;RU;TR,"Abkhazia; diaspora communities in Turkey, the Russian Federation, Georgia, the Middle East and Western Europe; includes the Ashkharawa dialect officially subsumed under Abaza in the Russian Federation",43.1330,40.8471,vulnerable,125000,estimate based on various sources,"_. _. _______: _________ ____. — _____ __________ _________ _ ________ __________: ____________ I. ______: _____, 1997. | Wolfgang Schulze: Abchasisch. — Lexikon der Sprachen des europäischen Ostens. Herausgegeben von Milo_ Okuka unter Mitwirkung von Gerald Krenn. Wieser Enzyklopädie des europäischen Ostens 10; Klagenfurt: Wieser, 2002. 843–850."
01602,,Acatepec Mazatec,en naxi llanazo,Mexico,MX,"Municipality of Santa Cruz Acatepec, state of Oaxaca",18.1621,-96.8766,vulnerable,1038,Census 2000,Census 2000 and information provided by INALI
00421,,Achagua,"Xagua, Ajagua, Axagua",Colombia,CO,Resguardos La Victoria (Umapo) and Turpial in the municipality of Puerto López (Meta). Location shared with Piapoco speakers.,4.4340,-70.8837,severely endangered,283,DANE: Census 1993 (projection 2001),"www.etniasdecolombia.orgArango and Sánchez (2004)"
02572,,Aché,,Paraguay,PY,,-25.6613,-55.6787,definitely endangered,,,
02064,,Acheron,Game,Sudan,SD,"Northern Sudan, Kordofan Province, southern Nuba Hills. Acheron",10.8090,30.2453,severely endangered,70000,"No available census or figures on linguistic situation. Estimate derived from Editor’s visit to Nuba Mountains (1999), UN assessments, vaccination campaigns and various missions (2002-2008).","UN interagency assessment missions, vaccination campaignsEditor’s field visit"
02130,,Achi’,,Guatemala,GT,"West of Rabinal, Baja Verapaz dept.",15.0845,-90.4888,vulnerable,82640,"Instituto Nacional de Estadística, Guatemala (2002) XI Censo Nacional de Población",XI Censo Nacional de Población for number of speakers and names of languages; Contributor H. Antonio García Zúñiga consulted Ethnologue for some locations.
00743,,Achuar,Achual,Ecuador; Peru,EC;PE,"- Ecuador: Provinces of Pastaza and Morona Santiago. There are about 30 communities, eleven of which are settled along the Ecuadorian-peruvian border. - Peru: Departamento de Loreto, provincias de Alto Amazonas y Loreto, en la cuenca de los ríos Pastaza, Huasaga, Morona (Cálculo de los propios achuar, 2007) ",-2.8991,-77.4316,definitely endangered,2500,"Ecuador: CODENPE, 2008Peru: Census developed in 2007 by the Achuar communties","- Juncosa, José. 1999. Mapa lingüístico de la Amazonia ecuatoriana. Quito: Abya-Yala.- CODENPE. www.codenpe.gov.ec"
01093,,Achumawi,,United States of America,US,"Both Achumawi and Atsugewi are heritage languages of the Pit River Tribe, which is organized into 11 bands representing the tribal groups with traditional territory along Pit River.",40.8816,-122.6715,critically endangered,10,"Fewer than 10 speakers, elderly; most of them semi-speakers or passive speakers","Victor Golla, Ives Goddard, Lyle Campbell, Marianne Mithun, and Mauricio Mixco. 2007. North America. Atlas of the World’s Languages (2nd. edition), ed. by R.E. Asher and C.J. Moseley, 7-44. London: Routledge."
01151,,Acoma-Laguna,"Acoma, Laguna, Acoma Keresan, Laguan Keresan",United States of America,US,"Spoken in Acoma and Laguna pueblos in northwestern New Mexico, west of Albuquerque. (Laguna is at Lat. N 35/93/14.97, Long. W 107/19/45.57.)",34.8964,-107.5816,definitely endangered,4000,"At Acoma there are about 2,000 speakers, most are over 30; at Laguna there are about 2,000 speakers, most are over 40. No children are acquiring the language.","Victor Golla, Ives Goddard, Lyle Campbell, Marianne Mithun, and Mauricio Mixco. 2007. North America. Atlas of the World’s Languages (2nd. edition), ed. by R.E. Asher and C.J. Moseley, 7-44. London: Routledge."
03088,,Adabe,,Timor-Leste,TL,"Autoro Island, Timor Leste",-8.2549,125.5737,vulnerable,1000,1981,"Wurm, Stephen A. 2007. ’Australia and the Pacific’, pp. 424-557 in Christopher Moseley (ed.) Encyclopedia of the World’s Endangered Languages. London/New York: Routledge."
01291,,Adi,Abor,China; India,CN;IN,East Siang District; Upper Siang District,28.3527,95.2294,vulnerable,170000,"2001, reasonably good estimate",
00234,,Adnyamathanha,,Australia,AU,,-30.6000,138.6035,definitely endangered,100,"NILS Report 2005Reliable & recent (+/- 20%)",
01380,,Adyge,Adyghe; Western Circassian,Iraq; Israel; Jordan; Russian Federation; Syrian Arab Republic; The former Yugoslav Republic of Macedonia; Turkey,IQ;IL;JO;RU;SY;MK;TR,"the Republic of Adygea and adjacent regions in the Russian Federation and many diaspora communities in Turkey, the Middle East and Western Europe",44.9181,39.7485,vulnerable,300000,"compromise figure based on various sources; 129,419 according to the 2002 Russian census plus a large number of speakers in diaspora communities","Wolfgang Schulze: Tscherkessisch. — Lexikon der Sprachen des europäischen Ostens. Herausgegeben von Milo_ Okuka unter Mitwirkung von Gerald Krenn. Wieser Enzyklopädie des europäischen Ostens 10; Klagenfurt: Wieser, 2002. 883–890."
02040,,Afitti,Ditti,Sudan,SD,,12.4419,30.7534,severely endangered,4512,1984,Ethnologue
01351,,Agul,Aghul,Russian Federation,RU,"fifteen villages in Agul County and five villages in Kurakh County, amongst them Richa, Burkikhan, Tpig, Kurag, Burshag, and Fite, in the Republic of Daghestan and in a number of expatriate communities elsewhere in the Russian Federation",41.7518,47.6875,definitely endangered,29399,2002 census,"_. _. ________: _________ ____. — _____ __________ _________ _ ________ __________: ____________ I. ______: _____, 1997."
00722,,Aheu,former village name Phonsung,Lao People’s Democratic Republic,LA,,18.4333,104.5000,definitely endangered,500,,
00595,,Ahom,,India,IN,,26.5393,92.5378,extinct,0,,
00199,,Ahtna,"Ahtena, Atna",United States of America,US,,62.7547,-144.3164,critically endangered,25,2000,Krauss 2007
02398,,Aikana,"Aikaná, Masaká, Kasupá, Huarí, Corumbiara, Mondé, Tubarão",Brazil,BR,"The group lives in indigenous lands Tubarão/Latundê, Posto Indígena Rio Guaporé, indigenous lands Kwazá do São Pedro, southeastern Rondônia - Brazil",-12.6510,-60.3918,definitely endangered,150,"2005 pop = 180, linguist Vasconelos/ISA. Speaker estimate from Hein van der Voort, pc.","Moore, 2008, IBGE databank Moore, 2008, Scientific American (Brasil)"
00686,,Aimol,,India,IN,,24.4971,93.6145,extinct,0,,
02481,,Ainba,,Papua New Guinea,PG,Sandaun (West Sepik) Province,-3.1000,141.2000,severely endangered,100,2000,Grimes 2000
00647,,Ainu (Hokkaido),,Japan,JP,the island of Hokkaido,43.2612,142.8222,critically endangered,15,1996 Alexander Vovin; Ainu is also studied as a second language,
00658,,Ainu (Kuril),,Russian Federation,RU,the northern islands of the Kuril chain (especially Shumshu and Paramushir) and the southern tip of Kamchatka (Cape Lopatka),46.8882,152.0068,extinct,0,Kuril Ainu became extinct in the late nineteenth century,"_. _. _______: _______ ____. — _____ ____: ______________ _____. ______: ______, 1997. 126–138."
00666,,Ainu (Sakhalin),,Russian Federation,RU,"the southern part of Sakhalin (Karafuto), from 1905 to 1945 under Japanese administration; most of the Ainu population was evacuated (after 1945) to Hokkaido, Japan, where a few speakers of Sakhalin Ainu survived until recently",47.3983,142.2949,extinct,0,"Sakhalin Ainu became extinct in the 1970s in Sakhalin, and after the death of the last speaker, who was 90 in 1992, in the émigré community in Japan","_. _. _______: _______ ____. — _____ ____: ______________ _____. ______: ______, 1997. 126–138."
01551,,Aiton,"Sham Doaniyas, Aitonia",India,IN,Lakhimpur and Sibsagar districts,26.6523,94.2901,severely endangered,2000,estimate; van Driem 2007c; Ethnologue gives 5000 (1990 Diller),
02780,,Aivilingmiutut,Eastern Canadian Inuktitut,Canada,CA,Spread over 2 communities in Canada,64.1657,-83.2430,vulnerable,1245,"2001 Census – based; average age: 20,7","1996 and 2001 Censuses, Statistics Canada; based on the Department of Canadian Heritage customized census retrievalsUNESCO Atlas 2nd edition (Wurm (2001))Ethnologue: Languages of the World (Gordon, (2005))http://www.aboriginalcanada.gc.ca/acp/community/site.nsf/index_en.htmlhttp://en.wikipedia.org/wiki/Portal:Contents"
02039,,Aja,Adja,Sudan,SD,,8.6136,25.2465,critically endangered,200,1993,Ethnologue
00754,,Ajuru,"Ajurú or Wayurú, Wayoró",Brazil,BR,"The group living in indigenous lands Rio Guaporé, south-western Rondônia - Brazil",-12.0178,-64.7534,severely endangered,8,"2006 pop 94, FUNASA, ISA website; speaker estimate from Moore, personal observation","Moore, 2008, IBGE databank Moore, 2008, Scientific American (Brasil) www.sociambiental.org"
02488,,Ak,,Papua New Guinea,PG,Sandaun (West Sepik) Province,-3.6093,141.6604,severely endangered,83,2000,Grimes 2000
01420,,Aka,"Hruso, Hrusso, Akha",India,IN,Bichom valley in West Kameng Dt,27.1666,92.6312,definitely endangered,4000,"estimate, India Census 2001",
02041,,Aka,Jebel Sillok,Sudan,SD,,11.0112,34.2333,critically endangered,300,1989,"Bender, Ethnologue"
02131,,Akatek (Guatemala),"Acateco, Akateco",Guatemala,GT,"San Miguel Acatán, San Rafael La Independencia",15.5724,-91.4218,vulnerable,35763,"Instituto Nacional de Estadística, Guatemala (2002) XI Censo Nacional de Población",XI Censeo Nacional de Población for number of speakers and names of languages; contributor H. Antonio García Zúñiga consulted Ethnologue for some locations
01690,,Akatek (Mexico),"kuti’, Akatec, Akateco",Mexico,MX,"Municipality of Champotón, state of Campeche; Municipalities of Frontera Comalapa and La Trinitaria, state of Chiapas; Municipality of Othon P. Blanco in Quintana Roo",16.7823,-93.1061,vulnerable,532,Census 2000,"Census 2000, information provided by INALIComplementary information provided by collaborator H. Antonio García Zúñiga"
02287,,Akawaio (Brazil),"Ingaricó Akawaio, Arawaio, Kapon",Brazil,BR,,4.1711,-60.2490,vulnerable,1170,"2007 pop = 1170, ISA: speaker estimate based on linguist Odileiz Sousa Cruz, of U Federal of Roraima, pc, who claims about all speak","Databank Moore, 2008."
00422,,"Akawaio (Guyana, Venezuela)","Kapon (autodenomination shared with the Patamona), Ingarikó",Guyana; Venezuela (Bolivarian Republic of),GY;VE,"Mainly in the Mazaruni River Basin (Guyana), also in Gran Sabana region of Venezuela (state of Bolívar).",5.3753,-60.5126,definitely endangered,5800,"811 in Venezuela according to 1992 census (Forte 2000).The number of 5000 for Guyana is an estimate.","J. Forte, in: Queixalós and Renault-Lescure, ’As línguas amazônicas hoje’ (2000)"
02603,,Akeu,Akeu Akha,Lao People’s Democratic Republic; Myanmar; Thailand,LA;MM;TH,,21.5833,101.0166,definitely endangered,5000,2007,
01355,,Akhvakh,,Russian Federation,RU,"six villages in Akhvakh County and the villages of Ratlub, Tlyanub, and Tsegob in Kakhib County in the Republic of Daghestan in the Russian Federation; expatriate community of Akhvakh-dere in Kuba (Quba) County in Azerbaijan",42.4720,46.3238,definitely endangered,5793,2002 census,"_. _. ____________: _________ ____. — _____ __________ _________ _ ________ __________: ____________ I. ______: _____, 1997."
00155,,Akie,"Akiek, Okiek",United Republic of Tanzania,TZ,,-4.7735,37.3315,critically endangered,0,2008,Maarten Mous
00483,,Akkala Saami,,Russian Federation,RU,"earlier spoken in the village of Babino in southern Murmansk Province, from where the speakers were translocated to Lovozero, the centre of Lovozero County",67.5809,31.6680,extinct,0,the last speaker died in 2003,
01746,,Akum,,Cameroon; Nigeria,CM;NG,,6.7300,9.9316,critically endangered,600,2007,Bruce Connell
00745,,Akuntsu,"Akunt’su, Akuntsú",Brazil,BR,"The group lives in indigenous lands Rio Omoréré, south-eastern Rondônia - Brazil",-13.1169,-61.0180,critically endangered,6,"2006 pop is 6, FUNASA, ISA website, recent 1995 contact and all speak the language","Moore, 2008, IBGE databank Moore, 2008, Scientific American (Brasil) www.socioambiental.org"
02363,,Akuriyo,,Suriname,SR,"In Tëpu, on the Tapanahoni river, in southeastern Suriname. The last Akuriyo live in a Trio community.",2.8442,-55.7556,critically endangered,,,"Carlin and Arends (2002), ’Atlas of the Languages of Suriname’"
02112,,Akwáwa,"3 groups: Asurini do Tocantins, Parakanã, Suruí do Tocantins (Aikewara)",Brazil,BR,,-5.2441,-52.7014,vulnerable,1548,"2006-pop Suruí do Tocantins= 264, 2004-Parakanã pop=900 , 2006-Asurini do Tocantins pop= 384, FUNASA, ISA Almost all speak their language.","Databank Moore, 2008."
01193,,Alabama,,United States of America,US,"The Alabama-Coushatta Indian Reservation near Livingston, Texas. Until recently there were also speakers among the members of the Alabama-Quassarte Tribe, an administrative subdivision of the Muskogee Creek Nation, in Okfuskee County, Oklahoma.",30.7158,-94.7028,definitely endangered,275,The youngest speakers are probably in their teens; most are 50 or older.,"Victor Golla, Ives Goddard, Lyle Campbell, Marianne Mithun, and Mauricio Mixco. 2007. North America. Atlas of the World’s Languages (2nd. edition), ed. by R.E. Asher and C.J. Moseley, 7-44. London: Routledge."
02621,,Alabat Island Agta,,Philippines,PH,,14.1209,122.0282,critically endangered,30,2000,
01664,,Alabugat Tatar,,Russian Federation,RU,the village of Severnyy at the station of Ulan-Khol in Lagan’ County in the Kalmyk Republic; an outlying dialect of Nogay not listed at all by the SIL,45.4447,47.0324,definitely endangered,422,1987 figure in ________ 1988,_. _. ________: ____ ____________ _____ ___________ ______ _________ ____. ______ 1988.
00235,,Alawa,,Australia,AU,,-16.4676,134.0771,critically endangered,22,"NILS Report 2005Reliable & recent",
01675,,Alderney French,auregnais,United Kingdom of Great Britain and Northern Ireland,GB,the island of Alderney in the Bailiwick of Guernsey; an extinct outlying dialect of Norman not listed at all by the SIL,49.7098,-2.2075,extinct,0,the last native speakers died around 1960,
01322,,Alemannic,"Alsatian, Swabian, Walser (in English); alsacien (in French)",Austria; France; Germany; Italy; Liechtenstein; Switzerland,AT;FR;DE;IT;LI;CH,"the Germanic-speaking part of Switzerland; central and southern Baden-Württemberg and the Swabia region in Bavaria, Germany; the state of Vorarlberg and parts of the Reutte district in Tyrol, Austria; all of Liechtenstein: entire country; most of Alsace, France; parts of the Aosta Valley and northern Piedmont, Italy; ’Alemán Coloneiro’ spoken in Colonia Tovar, Venezuela, is based on Alemannic",47.2792,7.6904,vulnerable,,"not available, but in the range of millions","Werner König: dtv-Atlas Deutsche Sprache. 13. durchgesehene Auflage. München: Deutscher Taschenbuch Verlag, 2001."
01798,,Aleut (Eastern),"Unangany, Unangan, Unanghan",United States of America,US,"AtkaTraditionally spoken in the Aleutian Islands, the Pribilof Islands, and the Alaska Peninsula west of Stepovak Bay. Atka is the location where the dialects of Eastern and Western Aleut are separated.",54.7212,-164.4433,critically endangered,150,"2000Number is for total number of speakers of Aleut (Western, Eastern) combined, the number of Western Aleut speakers is at most 5 percent of the total","Krauss 2007Victor Golla, Ives Goddard, Lyle Campbell, Marianne Mithun, and Mauricio Mixco. 2007. North America. Atlas of the World’s Languages (2nd. edition), ed. by R.E. Asher and C.J. Moseley, 7-44. London: Routledge."
00233,,"Aleut (Western, Commander Islands)",,Russian Federation,RU,"Bering Island, one of the Commander Islands in the west of the Aleutian chain, near Kamchatka, in Kamchatka Province; moved there from Attu Island in Alaska in the early 19th century; cf. Copper Island Aleut",55.1710,166.0940,critically endangered,5,estimate based on _______ 1997,"_. _. _______: _________ ____. — _____ ____: ______________ _____. ______: ______, 1997. 101–116."
00200,,Aleut (Western),"Unangany, Unangan, Unanghan",United States of America,US,"AtkaTraditionally spoken in the Aleutian Islands, the Pribilof Islands, and the Alaska Peninsula west of Stepovak Bay. Atka is the location where the dialects of Eastern and Western Aleut are separated.",52.2304,-174.1978,severely endangered,150,"2000Number is for total number of speakers of Aleut (Western, Eastern) combined, the number of Western Aleut speakers is at most 5 percent of the total","Krauss 2007Golla et al. ms."
01676,,Algherese Catalan,,Italy,IT,the town of Alghero in northwestern Sardinia; an outlying dialect of Catalan not listed separately by the SIL,40.5638,8.3276,definitely endangered,10000,estimate based on Enquesta d’usos lingüístics a l’Alguer 2004,
00526,provençau aupenc,Alpine Provençal,occitan alpin (fr); vivaro-alpin (fr); gavot (fr),France; Italy,FR;IT,"the upper valleys of Piedmont (Val Mairo, Val Varacho, Val d’Esturo, Entraigas, Limoun, Vinai, Pignerol, Sestriero), Italy; the departments of Ardèche (except the north and the western border areas), Drôme (except the north), Hautes-Alpes, the northern parts of Alpes de Haute-Provence, and the southernmost parts of Isère, France; severely endangered in France; the original joint ISO code [prv] for Alpine Provençal and Provençal has been retired on false grounds",44.7467,6.6796,definitely endangered,200000,rough estimate based on various sources,
02732,,Alune,,Indonesia,ID,Maluku,-3.0637,128.3752,vulnerable,12000,2000,Grimes 2000
02922,,Aluo,"Laka, Gan Yi",China,CN,,25.9368,102.1839,definitely endangered,20000,2000,Bradley 2007
00632,,Alutor,,Russian Federation,RU,"most of Olyutor and Karaga counties and the north of Tigil’ County in Koryak Autonomous District; includes three dialect groups, Alutor proper, Karaga, and Palana",60.2016,165.4238,severely endangered,1000,"estimate based on the collective figure of 3,019 speakers of Alutor and Koryak, possibly inflated, cf. 2005 _________ estimate of a few hundred speakers",_. _. _________: __________ ____ http://lingsib.unesco.ru/ru/languages/aliutor.shtml.htm
02733,,Amahai,,Indonesia,ID,Maluku,-3.3352,128.9314,critically endangered,30,2000,Grimes 2000
00967,,Amahuaca,,Peru,PE,"Departamento de Ucayali, provincias de Atalaya y Purús, distrito de Raimondi y Yurúa; departamento de Madre de Dios, provincia de Tambopata, distrito de Las Piedras.",-10.8764,-72.2900,severely endangered,500,El Censo indígena hecho en el Perú en 1993 señaló 198 personas. El ILV (2006) menciona 250 en el Perú y 250 en Brasil,ILV (2006). Pueblos del Perú.
02345,,Amami,"dialects: Kikai, Tokunoshima",Japan,JP,"Amami Island and neigbouring islands, including Kikai and Tokunoshima islands",28.3672,129.4958,definitely endangered,,not available,"Yukio Uemura: The Ryukyuan language. Endangered Languages of the Pacific Rim A4-018; Osaka 2003.Patrick Heinrich: Language loss and revitalization in the Ryukyu Islands http://japanfocus.org/products/topdf/1596Patrick Heinrich: What leaves a mark should no longer stain: Progressive erasure and reversing language shift activities in the Ryukyu Islands http://www.sicri.org/ISIC1/j.%20ISIC1P%20Heinrich.pdf"
02009,,Amanayé,"Manaxo, Manajo, Amanage",Brazil,BR,,-3.7327,-49.1088,extinct,0,"2001 pop 192, ISA Speaker estimate from contacts with linguists","Moore, 2008."
00145,,Amba,,Uganda,UG,,0.6737,30.1980,vulnerable,16000,1991,Ethnologue
03147,,Amblong,,Vanuatu,VU,Santo,-15.4933,166.9846,definitely endangered,150,1983,"Wurm, Stephen A. 2007. ’Australia and the Pacific’, pp. 424-557 in Christopher Moseley (ed.) Encyclopedia of the World’s Endangered Languages. London/New York: Routledge."
02405,,Amis,Ami,China,CN,Taiwan Province,23.4456,121.4483,vulnerable,30000,2008,
02972,,Amok,,Myanmar,MM,,21.3610,100.6457,critically endangered,,,
02672,,Ampibabo Lauje,Lauje,Indonesia,ID,Sulawesi,0.3295,120.1904,vulnerable,6000,2000,Grimes 2000
01487,,Anal,,India,IN,,24.1517,93.9385,vulnerable,23000,"estimate, India Census 2001 [ Ethnologue figure for 1997 (IMA) is 15000]",
02013,,Anambé,,Brazil,BR,,-2.7674,-49.2297,critically endangered,6,"2000 pop 132, ISA. Speaker estimate from remarks by linguist Risoleta","Moore,2008."
01353,,Andi,,Russian Federation,RU,"nine villages, including Andi, Muni (Munib), and Kvankhidatl’, in Botlikh County in the Republic of Daghestan",42.7308,46.2963,definitely endangered,23729,2002 census,"_. _. ________: _________ ____. — _____ __________ _________ _ ________ __________: ____________ I. ______: _____, 1997."
02673,,Andio,Masama,Indonesia,ID,"Sulawesi, Indonesia",-0.8514,123.1457,vulnerable,1700,2000,Grimes 2000
00972,,Andoa (Ecuador),"Shimigae, Gae, Andoa language (Ethnologue)",Ecuador,EC,"Location in Ecuador: Pastaza province, Pucayacu and Moretecocha regions.",-2.3341,-76.5016,critically endangered,10,2002 (speakers only know limited vocaulary),"- http://www.ethnologue.com/show_language.asp?code=anb- http://www.native-languages.org/andoa_words.htm- Gálvez, Marcelo. //archivo.eluniverso.com/2002/04/14/0001/12/18547D5E8B7B4B67AC3B03AF1C8E6E3B.aspx- Montaluisa, Luis. 2008. “Lenguas indígenas vivas del Ecuador”. International Expert Group Meeting on Indigenous Languages. UNITED NATIONS. Department of Economic and Social Affairs. Division for Social Policy and Development. Secretariat of the Permanent Forum on Indigenous Issues (8-10 January, 2008, New York) (unpublished)"
00943,,Andoa (Peru),"Gae, Semigae, Shimigae",Peru,PE,"Cabeceras del río Pastaza, en Loreto. Localidad de Andoas en el río Tigre",-2.6796,-76.2011,critically endangered,2,Información directa 2008,
00746,,Andoke,"Pöösíöhö (’People of the Axe’), Cha’oie, Businka",Colombia,CO,"Aduche River (Araracuara region), near the middle course of the Caquetá",-0.7690,-72.2351,severely endangered,597,DANE: Census 1993 (Projection 2001),"Arango and Sánchez ’Los Pueblos Indígenas de Colombia’ (2004)Landaburu ’La langue des andoke’ (1979)."
00688,,Andro,Phayeng,India,IN,,24.8415,94.0539,extinct,0,,
00120,,Anfillo,,Ethiopia,ET,,8.5049,34.7415,critically endangered,500,1990,"Moges, ongoing research by Debela Goshu."
01463,,Angami,,India,IN,between Dimapur (Assam) and Kohima (Nagaland),25.7553,94.1308,vulnerable,132000,"estimate, India Census 2001",
01895,,Angika,Chhika-Chhiki; Anga; Aangi; Bhagalpuri,India; Nepal,IN;NP,Bihar and Jharkhand,24.7451,85.3124,vulnerable,740892,with 15892 in Nepal,
02973,,Angku,,Myanmar,MM,,21.4888,100.8325,critically endangered,,,
00018,,Animere,Kunda,Ghana,GH,,7.6129,0.4064,critically endangered,700,2003,Ethnologue
00236,,Anindilyakwa,,Australia,AU,,-13.9987,136.5820,vulnerable,2000,"NILS Report 2005Reliable & recent (+/- 20%)",
00238,,Antakirinya,,Australia,AU,,-26.7848,134.2968,definitely endangered,200,"NILS Report 2005Somewhat reliable",
01103,,Antoniano,Antoniano Salinan,United States of America,US,"Mission San Antonio de Padua, near Jolon in southern Monterey County, CA.",35.9717,-121.1757,extinct,0,The last speakers died in the late 1950s or early 1960s.,"Victor Golla, Ives Goddard, Lyle Campbell, Marianne Mithun, and Mauricio Mixco. 2007. North America. Atlas of the World’s Languages (2nd. edition), ed. by R.E. Asher and C.J. Moseley, 7-44. London: Routledge."
00873,,Añu,Paraujano,Venezuela (Bolivarian Republic of),VE,"Sinamaica, Santa Rosa de Agua, El Moján, islas de Toas y San Carlos (northwest of Zulia state, Venezuela)",11.0220,-71.7352,critically endangered,20,,"Mosonyi and Mosonyi (2000), ’ Manual de lenguas indígenas de Venezuela’"
03165,,Anuki,Gabobora,Papua New Guinea,PG,"Arould Tapiosan, Cape Vogel, Milne Bay Province",-9.6522,149.7656,definitely endangered,542,2000,"Wurm, Stephen A. 2007. ’Australia and the Pacific’, pp. 424-557 in Christopher Moseley (ed.) Encyclopedia of the World’s Endangered Languages. London/New York: Routledge."
02908,,Anung (China),"Nung, Kwinpang Anong",China,CN,,26.7368,98.7766,critically endangered,5000,2000,Bradley 2007
02601,,Anung (Myanmar),"Anong, Nung",Myanmar,MM,,27.2000,98.6333,severely endangered,3500,2008,
03022,,Anus,,Indonesia,ID,Irian Jaya,-2.1268,139.5126,severely endangered,70,"Wurm 2000, from Ethnologue","Wurm, Stephen A. 2007. ’Australia and the Pacific’, pp. 424-557 in Christopher Moseley (ed.) Encyclopedia of the World’s Endangered Languages. London/New York: Routledge."
01453,,Ao,,India,IN,Wokho and parts of Mokokchung districts,26.4361,94.6472,vulnerable,243000,"estimate, India Census 2001",
02528,,Aore,,Vanuatu,VU,"Aore, Santo",-15.5767,167.1638,extinct,0,2000,Lynch & Crowley 2001
02397,,Apalai,,Brazil,BR,,1.2084,-55.1074,vulnerable,317,"2006 pop 317, FUNASA (ISA website) Almost all are said to speak language.","Moore, 2008."
01278,,Apatani,Apa Tani,India,IN,"Apatani valley, lower Subansiri D.",27.5228,93.8177,vulnerable,35000,personal fieldwork estimate,
01852,,Apiaká,Apiacá,Brazil,BR,The group lives in the northern state of Mato Grosso - Brasil,-11.1519,-57.3113,critically endangered,1,"2007; infos from researchers (UnB) and one Apiaka met at the Indigenous University of UNEMAT. Confirmed pc Henri Ramirez, 2008; 2001 pop=192, Funasa/ISA","Franchetto 2008; Moore, 2008, IBGE databank Moore, 2008, Scientific American (Brasil) www.socioambiental.org"
02324,,Apinajé,"Apinayé, Apinaié, Timbira Ocidentais",Brazil,BR,"Brazil, extreme north of the Tocantins State, at the confluence of the Araguaia and Tocantins rivers, 8 villages in the Terra Indígena Apinajé.",-6.0317,-47.5604,vulnerable,1500,"1,525 pop (Census FUNASA 2006- reported in ISA website) Speaker number based on impression of linguist Flávia Alves de Castro that the native language is the first language of most..","www.socioambiental.orgMoore, 2008, IBGE databank Moore, 2008, Scientific American (Brasil)"
00747,,Apolista,,Bolivia,BO,,-14.4027,-68.6206,extinct,0,,
02301,,Apurinã,,Brazil,BR,,-5.4847,-63.8964,definitely endangered,2000,"2006 pop de 3256, FUNASA (ISA website) Speaker estimate a guess based on reports of variation in number of speakers.","Databank Moore, 2008."
02734,,Aputai,,Indonesia,ID,Maluku,-7.6511,126.4086,critically endangered,120,2000,Grimes 2000
02896,,Aqaw Gelao,"Gao, Qaw",China,CN,,28.7447,106.0714,critically endangered,5,2000,Bradley 2007
02453,,Arabana,,Australia,AU,,-28.6134,135.8349,critically endangered,6,"NILS Report 2005Reliable & recent (+/- 20%)",
00748,,Arabela,Chiripuno,Peru,PE,"Departamento de Loreto, cabeceras del río Napo (afluente Nashiño). Aldea de Buena Vista, entre otras.",-1.5818,-75.3881,severely endangered,50,Cantidad aproximada del año 2001. Hay diferencia,ILV. 2006
00484,,Aragonese,,Spain,ES,"the high valleys of the Pyrenees, notably Aragon River (Somontano), Sobrarbe and Ribagorza, in the northern part of the Huesca (Uesca) region in the northeast of Aragón, main towns being Graus and Sabiñánigo (Samianigo)",42.2935,-0.4394,definitely endangered,10000,rough estimate based on various sources,
03016,,Araki,,Vanuatu,VU,"Araki Island, Santo",-15.6322,166.9413,critically endangered,8,"2008, Alexandre François","Alexandre François 2008http://alex.francois.free.fr/AF-terrain.htm"
02293,,Araona,,Bolivia,BO,"Province of Abel Iturralde, Department of La Paz, Bolivia",-12.4473,-68.1372,severely endangered,81,,"Crevels et alii (2002), ’Current Studies in the Languages of South America’"
01801,,Arapaho (Oklahoma),,United States of America,US,Wind River Reservation in Wyoming; Cheyenne-Arapaho Tribe in Oklahoma,35.6020,-97.9712,extinct,0,number of speakers is for all locations combined; there are no remaining speakers in Oklahoma,Golla et al. ms.
01802,,Arapaho (Wyoming),,United States of America,US,Wind River Reservation in Wyoming; Cheyenne-Arapaho Tribe in Oklahoma,43.0139,-108.8214,severely endangered,1000,number of speakers is for all locations combined; there are no remaining speakers in Oklahoma,Golla et al. ms.
02116,,Arapáso,,Brazil,BR,,0.0000,-66.0000,extinct,0,"2005 pop is 569, Dsei/FOIRN, ISA. According to Henri Ramirez and Kristine Stenzel, there are no known speakers in Brazil.","Databank Moore, 2008."
02016,,Arara do Pará,Ukarãgmã,Brazil,BR,,-3.7546,-52.9760,vulnerable,271,"2006 pop is 271, FUNASA, ISA. Contact was a few decades ago and persumably everyone speaks the language.","Moore, 2008."
02271,,Arára Shawãdáwa,Shawanauá,Brazil,BR,,-8.5810,-72.2900,critically endangered,9,"2000; 2004 pop=332, CPI/AC/ISA","Databank Moore, 2008."
02111,,Araweté,Araueté,Brazil,BR,,-5.1347,-52.3388,vulnerable,339,"2000; 2006 pop=339 Funasa/ISA, relatively unacculturated and probably all speak the language","Databank Moore, 2008."
02484,,Arawun,,Papua New Guinea,PG,Madang Province,-5.5093,145.8929,severely endangered,73,2000,Grimes 2000
01859,,Arbanasi,,Croatia,HR,Arbanasi in Zadar (Zara); an outlying dialect of (Gheg) Albanian not listed at all by the SIL,44.0994,15.2545,severely endangered,500,2002 Kova_ec maximum figure,"August Kova_ec: Arbanasi-Albanisch. — Lexikon der Sprachen des europäischen Ostens. Herausgegeben von Milo_ Okuka unter Mitwirkung von Gerald Krenn. Wieser Enzyklopädie des europäischen Ostens 10; Klagenfurt: Wieser, 2002. 67–70."
01680,arbrisht,Arbëresh,Arbëreshë Albanian,Italy,IT,"(i) Adriatic zone: Montecilfone, Campomarino, Portocannone and Ururi in Molise as well as Chieuti und Casalvecchio di Puglia in Apulia; (ii) San Marzano in Apulia; (iii) Greci in Campania; (iv) northern Basilicata: Barile, Ginestra und Maschito; (v) North Calabrian zone: ca. 30 settlements in northern Calabria (Plataci, Civita, Frascineto, San Demetrio Corone, Lungro, Acquaformosa etc.) as well as San Costantino Albanese and San Paolo Lucano in southern Basilicata; (vi) settlements in southern Calabria, e.g. San Nicola dell’Alto and Vena di Maida; (vii) Sicilian zone: Piana degli Albanesi and two nearby villages near Palermo; (viii) formely also Villabadessa in Abruzzi; an outlying dialect of Albanian",40.9321,14.8645,definitely endangered,80000,"based on Breu 2002 who refers to the figure 100,000 as exaggerated","Walter Breu: Italoalbanisch. — Lexikon der Sprachen des europäischen Ostens. Herausgegeben von Milo_ Okuka unter Mitwirkung von Gerald Krenn. Wieser Enzyklopädie des europäischen Ostens 10; Klagenfurt: Wieser, 2002. 73–75."
02024,,Arbore,,Ethiopia,ET,,5.0690,36.8920,definitely endangered,4441,1998,"Census, Ethnologue, ongoing research by Eshi Gabbert, Anni Peller, Ayalew Gebre, Yukio Miyawaki, Tadesse Wolde "
01354,,Archi,,Russian Federation,RU,the village of Archi (Archib) in Charoda County in the Republic of Daghestan,41.9839,46.8127,definitely endangered,524,"2002 census; cf. ______ 1997: approximately 1,000 speakers","_. _. ______: _________ ____. — _____ __________ _________ _ ________ __________: ____________ I. ______: _____, 1997."
00689,,Arem,Hareme,Lao People’s Democratic Republic; Viet Nam,LA;VN,,18.1771,105.3369,severely endangered,100,1995,
00122,,Argobba,,Ethiopia,ET,,10.5958,39.9792,critically endangered,8000,2002,"Andreas Wetter, Ethnologue"
03023,,Arguni,,Indonesia,ID,Irian Jaya,-2.6632,132.5418,vulnerable,150,Wurm 2000,"Wurm, Stephen A. 2007. ’Australia and the Pacific’, pp. 424-557 in Christopher Moseley (ed.) Encyclopedia of the World’s Endangered Languages. London/New York: Routledge."
02546,,Arha,,New Caledonia (France),NC,Poya region,-21.3047,165.0146,critically endangered,50,2000,Rivierre et al 2003
02547,,Arho,,New Caledonia (France),NC,Poya region,-21.2740,165.0503,critically endangered,10,2000,"Rivierre et al. 2003http://fr.wikipedia.org/wiki/Langues_kanak"
02482,,Ari,,Papua New Guinea,PG,Western Province,-8.0000,142.4000,severely endangered,80,2000,Grimes 2000
03167,,Aribwatsa,,Papua New Guinea,PG,Lae town area,-6.6523,147.2291,extinct,0,1997,"Wurm, Stephen A. 2007. ’Australia and the Pacific’, pp. 424-557 in Christopher Moseley (ed.) Encyclopedia of the World’s Endangered Languages. London/New York: Routledge."
00749,,Arikapu,"Aricapu, Arikapu",Brazil,BR,the group lives in indigenous lands of Rio Branco - Município of Alta Floresta in the state of Rondônia - Brazil,-12.0527,-64.7259,critically endangered,2,"2001; 2006 pop=29, Funasa/ISA, number of speakers p.c. linguist Hein van der Voort, who works with the language","Moore, 2008, IBGE databank Moore, 2008, Scientific American (Brasil) www.socioambiental.org"
01179,,Arikara,,United States of America,US,"The modern Arikara, one of the Three Affiliated Tribes, share the Fort Berthold Reservation in North Dakota with the Mandan and Hidatsa, primarily in the communities of White Shield and Parshall.",47.6480,-101.8327,critically endangered,10,"Fewer than 10 speakers, all elderly.","Victor Golla, Ives Goddard, Lyle Campbell, Marianne Mithun, and Mauricio Mixco. 2007. North America. Atlas of the World’s Languages (2nd. edition), ed. by R.E. Asher and C.J. Moseley, 7-44. London: Routledge."
01959,,Arin,,Russian Federation,RU,"the upper Yenisey basin, to the north of Krasnoyarsk and the Minusinsk region",56.2982,91.7468,extinct,0,spoken till the late eighteenth century,"_. _. ______: __________ _____. — _____ ____: ______________ _____. ______: ______, 1997. 169–177."
00634,,Arman,,Russian Federation,RU,_______ ___ _ ______ ________ ______ ___________ _______; an extinct outlying dialect of Even not listed separately by the SIL,59.6732,150.1391,extinct,0,in the 1940s there were 10 speakers,
00485,,Aromanian,Macedo-Romanian; Vlach; Tsintsar,Albania; Bulgaria; Greece; Serbia; The former Yugoslav Republic of Macedonia,AL;BG;GR;RS;MK,"Thessaly and Epirus in northern Greece; the central parts of Albania; several small pockets in the FYROM, Greece and Bulgaria; immigrant groups deriving from the eighteenth century in Serbia, especially between Ni_ and Kladovo; many Aromanian immigrants since the early twentieth century also in Romania",40.2292,21.1376,definitely endangered,500000,2002 Atanasov,"Petar Atanasov: Aromunisch. — Lexikon der Sprachen des europäischen Ostens. Herausgegeben von Milo_ Okuka unter Mitwirkung von Gerald Krenn. Wieser Enzyklopädie des europäischen Ostens 10; Klagenfurt: Wieser, 2002. 77–82."
00239,,Arrernte,,Australia,AU,,-24.1668,132.0996,vulnerable,2000,"NILS Report 2005Reliable & recent (+/- 20%)",
02629,,Arta,,Philippines,PH,,16.4225,121.7042,critically endangered,150,2000,
00750,,Aruá,,Brazil,BR,"The group lives in indigenous lands of Rio Branco, Posto Indígena Rio Guaporé, southern Rondônia",-12.0285,-64.7094,severely endangered,12,"2001; 2006 pop=69, ISA; rough speaker estimate by Moore, personal experience","Moore, 2008, IBGE databank Moore, 2008, Scientific American (Brasil) www.socioambiental.org"
00424,,Aruaco,"Ika, Ijka, Bíntukwa",Colombia,CO,"Sierra Nevada de Santa Marta, northern Colombia",10.0986,-73.5424,vulnerable,14799,"DANE: census 1993 (projection 2001)","Arango and Sánchez, ’Los pueblos indígenas de Colombia’ (2004)"
01685,arbërisht,Arvanitika,Arvanite Albanian,Greece,GR,"rural areas in Attica, Boeotia (Voiotía), southern Euboea (Évvoia), northern Andros (Ándros), Corinthia, Argolis and a few smaller sections of Peloponnese and central Greece; an outlying dialect of (Tosk) Albanian",38.1863,23.6096,severely endangered,50000,1991 Sasse estimate,"Bardhyl Demiraj: Arvanitisch. — Lexikon der Sprachen des europäischen Ostens. Herausgegeben von Milo_ Okuka unter Mitwirkung von Gerald Krenn. Wieser Enzyklopädie des europäischen Ostens 10; Klagenfurt: Wieser, 2002. 71–72. Hans-Jürgen Sasse: Arvanitika: Die arvanitischen Sprachreste in Griechenland. Bd. 1. Wiesbaden: Harrassowitz, 1991."
03024,,As,,Indonesia,ID,Irian Jaya,-0.7360,131.7727,vulnerable,230,Wurm 2000,"Wurm, Stephen A. 2007. ’Australia and the Pacific’, pp. 424-557 in Christopher Moseley (ed.) Encyclopedia of the World’s Endangered Languages. London/New York: Routledge."
02138,,Ashaninka (Brazil),"Kampa, Axíninka",Brazil,BR,,-9.3786,-73.1414,vulnerable,813,1999; 2004 pop=869 CPI/Acre/ISA,"Databank Moore, 2008."
00956,,Ashaninka (Peru),"Asheninka, campa",Peru,PE,"Deptos. de Junín, Ucayali, Loreto, Pasco y Cusco.",-10.6929,-74.3444,vulnerable,62468,Censo de 2007.,www.inei.gob.pe
01942,,Ashkun,"âSkuNu vîri, Ashkund, Ashkuni, Wamayi, Wamais",Afghanistan,AF,"Pech Valley, northwest of Asadabad in Kunar Province, Afghanistan.",34.9973,71.0746,definitely endangered,2000,relatively accurate (2000),"Dr. Richard F. Strand, ’Nuristan’ http://users.sedona.net/~strand/Dr. George van Driem in ’Encyclopedia of the world’s endangered languaged’, ed. Christopher Moseley (2007)."
02132,,Ashtiani,"Astiani, Ashtiyani",Iran (Islamic Republic of),IR,"Ashtiyan and Tafresh, Markazi Province",34.4861,51.0562,definitely endangered,21000,2000 census,
02781,,Assiniboine (Canada),,Canada,CA,Spread over 2 communities in Canada,50.3536,-103.4841,critically endangered,80,"2001 Census – based; average age: 62,6","1996 and 2001 Censuses, Statistics Canada; based on the Department of Canadian Heritage customized census retrievalsUNESCO Atlas 2nd edition (Wurm (2001))Ethnologue: Languages of the World (Gordon, (2005))http://www.aboriginalcanada.gc.ca/acp/community/site.nsf/index_en.htmlhttp://en.wikipedia.org/wiki/Portal:Contents"
01891,,Assiniboine (United States of America),Nakon. A divergent dialect of the Dakotan group of Sioux dialects.,United States of America,US,"On Fort Belknap and Fort Peck reservations in Montana and on Whitebear, Carry the Kettle, and Mosquito-Grizzly Bear’s Head reserves in Saskatchewan.",48.4466,-114.8783,critically endangered,150,"Less than 150 speakers, elderly, none under 40.","Victor Golla, Ives Goddard, Lyle Campbell, Marianne Mithun, and Mauricio Mixco. 2007. North America. Atlas of the World’s Languages (2nd. edition), ed. by R.E. Asher and C.J. Moseley, 7-44. London: Routledge."
00486,astur-leonés,Asturian-Leonese,Bable; Mirandese (local name in Portugal); Extremaduran (dialect); Cantabrian (dialect),Portugal; Spain,PT;ES,"Asturias and northwestern Castile and León, Cantabria and Extremadura, Spain; and the municipalities of Miranda do Douro and Vimioso in north-eastern Portugal",42.7954,-5.6689,definitely endangered,150000,rough estimate based on various sources; a few thousand speakers in Portugal,
02523,,Asumboa,Asumbuo,Solomon Islands,SB,Utupua,-11.2982,166.4868,severely endangered,40,1983,Tryon & Hackman 1983
01543,,Asur,"Asuri, Assur",India,IN,,22.4719,84.9023,definitely endangered,7000,van Driem 2007c; Ethnologue gives 16000 in 2001,
02113,,Asurini do Xingu,Awaeté,Brazil,BR,,-3.9095,-52.4707,vulnerable,124,"2001; 2006 pop=124, ISA, all speak language","Databank Moore, 2008."
02630,,Ata,,Philippines,PH,,9.6081,122.9155,critically endangered,2,2000,
00751,,Atacameño,"Kunza, Likan Antai",Argentina; Bolivia; Chile,AR;BO;CL,"Two areas: (1) San Pedro de Atacama, Toconao, Socaire, Peine; (2) Chiu-chiu, Caspana. Province of Antofagasta, between Calama and the Bolivian border. ",-22.7559,-68.2470,extinct,0,"Miscellaneous observations by travelers and scientists between 1860 and 1960.","Adelaar with Muysken, ’The Languages of the Andes’ (2004)- http://www.indec.gov.ar/webcenso/ECPI/ (Download: January 2008)- http://www.ine.cl (Download: December 2007)"
03168,,Atemble,Atemple,Papua New Guinea,PG,"Northwest of Aiome and upstream from Annaberg, Madang Province",-5.1292,144.7421,definitely endangered,60,2000,"Wurm, Stephen A. 2007. ’Australia and the Pacific’, pp. 424-557 in Christopher Moseley (ed.) Encyclopedia of the World’s Endangered Languages. London/New York: Routledge."
01261,,Athpahariya,________; Athpre; Arthare; Belhare (dialect),Nepal,NP,Dhanku_a district,26.9520,87.3399,definitely endangered,2000,1995,"Driem, George van. 2001. Languages of the Himalayas. Volumes 1 and 2. Hand-book of Oriental Studies. Section Two: India. Leiden/Boston/Köln: Brill.Driem, George van. 2007. ’South Asia and the Middle East’, pp. 283-347 in Christopher Moseley (ed.) Encyclopedia of the World’s Endangered Languages. London/New York: Routledge."
02782,,Atikamekw,,Canada,CA,Spread over 3 communities in Canada,47.2104,-74.3827,vulnerable,4155,"2001 Census – based; average age: 22,7","1996 and 2001 Censuses, Statistics Canada; based on the Department of Canadian Heritage customized census retrievalsUNESCO Atlas 2nd edition (Wurm (2001))Ethnologue: Languages of the World (Gordon, (2005))http://www.aboriginalcanada.gc.ca/acp/community/site.nsf/index_en.htmlhttp://en.wikipedia.org/wiki/Portal:Contents"
01094,,Atsugewi,,United States of America,US,,40.8824,-122.6661,extinct,0,,"Victor Golla, Ives Goddard, Lyle Campbell, Marianne Mithun, and Mauricio Mixco. 2007. North America. Atlas of the World’s Languages (2nd. edition), ed. by R.E. Asher and C.J. Moseley, 7-44. London: Routledge."
02059,,Aurê-Aurá,,Brazil,BR,,-2.9649,-46.2084,critically endangered,2,"The language of these two isolated indigenous fellows (given personal names Aurê and Aurá by whites) was identified by Moore in 1987, about 250 km west of Marabá, Pará. They now live with the Guajá. It is still not known what happened to the rest o","Databank Moore, 2008."
02752,,Austral dialects,"Rurutu, Tupuai, Rimatara, Raivavae",French Polynesia (France),PF,"Austral Islands (Rurutu, Tupuai, Rimatara, Raivavae)",-23.3775,-149.4909,definitely endangered,8000,1987,"Wurm, Stephen 2007. ’Australia and the Pacific’, pp. 425-578 in Christopher Moseley (ed.) Encyclopedia of the World’s Endangered Languages. London/New York: Routledge.Grimes 2000"
00487,auvernhat,Auvergnat,occitan auvergnat; auvernhàs,France,FR,"the departments of Cantal (except Aurillac region), Haute-Loire, and Puy-de-Dôme, and extending to the Gannat region in Allier, the Saint-Bonnet-le-Château region in Loire, and the western border areas in Ardèche; the original ISO code [auv] for Auvergnat has been retired on false grounds",45.1278,3.1311,severely endangered,,"2004 Ethnologue figure without source reference, perhaps grossly inflated",
03025,,Auye,,Indonesia,ID,Irian Jaya,-3.5627,135.9915,vulnerable,350,"1995, Ethnologue","Wurm, Stephen A. 2007. ’Australia and the Pacific’, pp. 424-557 in Christopher Moseley (ed.) Encyclopedia of the World’s Endangered Languages. London/New York: Routledge."
02326,,Ava-Canoeiro,"Canoeiro, Carijó, Índios Negros, Cara Preta",Brazil,BR,"Brazil, States of Goiás and Tocantins",-14.0847,-48.0418,critically endangered,16,"16 (Funasa - 2006), perhaps all speak the language, no real data","www.socioambiental.orgMoore, 2008, IBGE databank Moore, 2008, Scientific American (Brasil)"
02262,,Ava-Guaraní,"Western Guarani, Chiriguano, Guarani, Eastern Guarani (Bolivia), Western Guarani or Guarayo (Paraguay), Ñandeva (Brazil)",Argentina,AR,"In Argentina: Provinces os Salta and Jujuy. In Bolivia South central Parapeti River area, Tarija",-23.1403,-64.3359,definitely endangered,2000,Argentina: National Census 2001,"- Censabella, Marisa. 2008 Lenguas del Chaco (unpublished)"
01385,,Avar,,Russian Federation,RU,parts of the Republic of Daghestan,42.4801,46.8017,vulnerable,784840,2002 census,
02529,,Aveteian,,Vanuatu,VU,Malekula,-16.3985,167.4213,critically endangered,5,2000,Lynch & Crowley 2001
00772,,Awa Cuaiquer,"Kwaiker, Awa Pit (language), Awa (people)",Colombia,CO,"Mainly in the department of Nariño, adjacent to Ecuador, between Pasto and the Pacific ocean",1.4939,-78.5742,critically endangered,7500,DANE: Census 1993 (projection 2001),"Plan de Vida Awa - Arango and Sánchez, ’Los pueblos indígenas de Colombia’ (2004)Rodríguez en González, ’Lenguas indígenas de Colombia’ (2000)T. Curnow, ’A grammar of Awa Pit’ (ms.)"
01592,,Awa’pit,"Awa Kwaiker, Awa Coaiquer",Ecuador,EC,"The Awa people migrated from Colombia. In Ecuador they are located in the northwestern region of the country in three different provinces: Esmeraldas in the Coast (Parish of Ricaurte-Tululbí, San Lorenzo county), Carchi and Imbabura in the Highlands. Total population is about 3800 people distributed in 21 communities (Centros) which are the legal owners of 120.000 hectares. They are represented by the Federation of Awa Centers (Federación de Centros Awá del Ecuador - FCAE)",1.0985,-78.7060,severely endangered,900,"- 2007, 2008 Dirección de Eduación Bilingue de la Nacionalidad Awa del Ecuador (DEIBNAE) ","- www.codenpe.org- Personal communication with PEdro García (DEIBNAE) 2008"
00949,,Awajun,Aguaruna,Peru,PE,"Depto. de Amazonas, Prov. de Condorcanqui. También en el Depto. de Loreto, provincia de Daten. El centro del territorio está en la ciudad de Nieva y sus alrededores.",-4.3464,-77.8271,vulnerable,39000,35% monolonguals.,"S.E. Overall (2007), ’A Grammar of Aguaruna’ (diss. La Trobe, Melbourne)"
02133,,Awakatek (Guatemala),,Guatemala,GT,"Aguacatán, western Huehuetenango department",15.3429,-91.3120,vulnerable,9613,"Instituto Nacional de Estadística, Guatemala (2002) XI Censo Nacional de Población",XI Censo Nacional de Población for number of speakers and names of languages; contributor H. Antonio García Zúñiga consulted Ethnologue for some locations
01704,,Awakatek (Mexico),qyool,Mexico,MX,"Localities of Maya Tecún I, Maya Teceun II and Santo Domingo Kesté in the municipality of Champotón in the state of Campeche",19.3481,-90.7177,critically endangered,3,Census 2000,"Census 2000, information provided by INALIComplementary information provided by contributor H. Antonio García Zúñiga"
03026,,Awera,,Indonesia,ID,Irian Jaya,-2.7084,136.0395,vulnerable,70,2000 Wurm,"Wurm, Stephen A. 2007. ’Australia and the Pacific’, pp. 424-557 in Christopher Moseley (ed.) Encyclopedia of the World’s Endangered Languages. London/New York: Routledge."
00753,,Aweti,"Awetí, Aueti, Auetö, Awiti, Awetö",Brazil,BR,Terra Indígena do Xingu - Estado de Mato Grosso - Brasil,-12.2053,-53.3705,vulnerable,160,"2008; 2006 pop=140, ISA","Sebastian Drude in UNESCO survey: linguistic vitality and diversity - 2008www.socioambiental.org"
00005,,Awjila,"Aougila, Awjilah, Aujila, Aoudjila, Augila",Libyan Arab Jamahiriya,LY,"Awjila is spoken in the Oasis of Awjila form which it derives its name.It is also spoken in Cyrenaica, eastern Libya,",26.6278,24.5214,severely endangered,3000,"No census has been carried out to determine the number of speakers. The number is provided in Ethnologue. The date indicated is 2000. another source, www.nationmaster.com/encyclopedia/Aujila), mentions 2000 speakers.","Mainly internet-based sources. Most female Awilja speakers are said to be still monolingual, while males are bilingual (Arabic)."
03027,,Awyi,Nyao,Indonesia,ID,Irian Jaya,-2.9430,140.6359,vulnerable,350,2000 Wurm,"Wurm, Stephen A. 2007. ’Australia and the Pacific’, pp. 424-557 in Christopher Moseley (ed.) Encyclopedia of the World’s Endangered Languages. London/New York: Routledge."
01215,,Ayapanec,numte oote,Mexico,MX,"Locality of Ayapa, Municipality of Jalpa de Méndez, state of Tabasco",18.2241,-93.1108,critically endangered,8,Census 2005,"Contributor: Leopoldo Valiñas, Census 2005 and information provided by INALI"
01617,,Ayautla Mazatec,"enre naxinanda nguifi, Southeastern Mazatec, Mazateco del sureste",Mexico,MX,"Municipality of San Bartolomé Ayautla, Oaxaca",18.0190,-96.7441,vulnerable,3192,Census 2000,Census 2000 and information provided by INALI
00690,,Ayizi,"Bai Yi, Bai Luoluo",China,CN,,24.5964,103.7329,critically endangered,10,,
00971,,Aymara,"Aimara, Jaqi Aru, Southern Aymara.",Bolivia; Chile; Peru,BO;CL;PE,"Departamentos de Puno, Moquegua y Tacna, en el Perú. Area del lago Titicaca, donde se incluye también el Altiplano boliviano.In Bolivia: departments of La Paz, Oruro, Potosí and Cochabamba.In Chile: Province of Tarapacá (interior of Arica, Iquique).",-16.5835,-68.3020,vulnerable,2000000,"Censo del año 2007 (Perú): 434 372. El dato censal de Bolivia señala: 1462285; la cifra para aymaras en Chile sobrepasa de 20000 personas.",www.inei.gob.pe para aymara en el Perú (Censo de 2007).
02290,,Ayoreo,Zamuco. Moro.,Bolivia,BO,,-18.7190,-59.6228,definitely endangered,3700,,
02417,,Babuza,"Favorlang, Poavosa",China,CN,Taiwan Province,24.0100,120.6230,extinct,0,recently extinct,
01914,,Badaga,Badag; Badagu; Badugu; Baduga; Vadagu,India,IN,"Tamil Nadu, Nilgiri and Konda Hills",11.3642,76.5266,definitely endangered,134514,Census 2001,
00241,,Badala,,Australia,AU,,-25.2850,153.1054,critically endangered,0,not mentioned in Census,
01724,,Bade,,Nigeria,NG,,12.8010,11.1181,vulnerable,250000,1993,"Ethnologue, Roger Blench"
01643,,Badiaranke,Badyara,Guinea,GN,"Spoken in Guinea, Guinea-Bissau and Senegal.",12.4043,-13.5736,severely endangered,12205,2002,"Ethnologue, Adjaratou Sall, Tucker Childs"
00011,,Baga Kalem,,Guinea,GN,,10.4013,-14.3151,extinct,0,2008,Tucker Childs
01647,,Baga Manduri,,Guinea,GN,,10.0986,-14.0405,definitely endangered,4000,2002,"Tucker Childs, Ethnologue"
00008,,Baga Mboteni,,Guinea,GN,,10.7415,-14.5513,critically endangered,0,2008,Tucker Childs
00012,,Baga Sitemu,,Guinea,GN,,10.1094,-14.1586,severely endangered,4000,2002,"Tucker Childs, Ethnologue"
01896,,Baghati,,India,IN,"Himachal Pradesh, northwest of Nahan and the Sirmauri area",31.1940,77.0471,critically endangered,3976,,
03169,,Bagupi,,Papua New Guinea,PG,"Headwaters of the Gogol river, west of Mabanob, northwest of Madang town, Madang Province",-5.0454,145.5822,definitely endangered,60,2000,"Wurm, Stephen A. 2007. ’Australia and the Pacific’, pp. 424-557 in Christopher Moseley (ed.) Encyclopedia of the World’s Endangered Languages. London/New York: Routledge."
01356,,Bagvalal,Bagulal; Kvanada; ____________; ____________,Russian Federation,RU,"the villages of Khushtada, Tlondoda, Kvanada, and Gemerso in Tsumada County and the villages of Tlissi and Tlibisho in Akhvakh County as well as in a number of expatriate communities elsewhere in the Republic of Daghestan",42.5247,46.1920,definitely endangered,5000,"1997 __________ estimate: 5,000–6,000; the census figure 57 must be based on a technical error","_. _. __________: ____________ ____. — _____ __________ _________ _ ________ __________: ____________ I. ______: _____, 1997."
02649,,Baheng (China),"Pa Hng, Pa Then",China,CN,,26.1900,110.2400,vulnerable,45000,2000,Bradley 2007
02648,,Baheng (Viet Nam),"Pa Hng, Pa Then",Viet Nam,VN,,22.8166,106.3500,vulnerable,5569,1999,Bradley 2007
01263,,Bahing,____; Rumdali; Bainge Rai; Baing; Baying; Bayung,Nepal,NP,Okhal_hu_g_ and Solukhumb_ districts,27.3126,86.5571,definitely endangered,2765,2001 census,"Driem, George van. 2001. Languages of the Himalayas. Volumes 1 and 2. Hand-book of Oriental Studies. Section Two: India. Leiden/Boston/Köln: Brill.Driem, George van. 2007. ’South Asia and the Middle East’, pp. 283-347 in Christopher Moseley (ed.) Encyclopedia of the World’s Endangered Languages. London/New York: Routledge.ethnologue.com"
02674,,Bahonsuai,,Indonesia,ID,"Sulawesi, Indonesia",-2.2186,121.6845,definitely endangered,180,2000,Grimes 2000
02042,,Bai,Bari,Sudan,SD,"Southern Sudan,Western District, on Wau-Deim Zubeir road, west of Sere. A few north of Tembura. 2 villages",8.0592,25.5102,definitely endangered,2500,1971,"Welmers, Ethnologue"
02909,,Baima,,China,CN,,33.1531,103.8696,vulnerable,10000,2000,Bradley 2007
01635,,Bainouk-Gunyaamolo,,Senegal,SN,,12.7421,-16.1141,vulnerable,5635,2002,"Ethnologue, Adjaratou Sall"
01814,,Bainouk-Samik,,Senegal,SN,,12.5733,-16.2652,severely endangered,1685,2002,"Ethnologue, Adjaratou Sall"
02134,,Bakairi,"Bacairi, Kurâ",Brazil,BR,"Brasil - Northern Mato Grosso State, southwest to the Upper Xingu area; Terra Indígena Bakairi, Municipality of Nobres, and Terra Indígena Santana, Municipality of Paranatinga.",-14.4213,-54.0305,vulnerable,950,"1999 pop=950, Taukane/ISA","www.socioambiental.orgMoore, 2008, IBGE databank Moore, 2008, Scientific American (Brasil)"
03148,,Baki,,Vanuatu,VU,Epi Island,-16.7013,168.1450,vulnerable,150,2000,"Wurm, Stephen A. 2007. ’Australia and the Pacific’, pp. 424-557 in Christopher Moseley (ed.) Encyclopedia of the World’s Endangered Languages. London/New York: Routledge."
01761,,Bakole,,Cameroon,CM,,4.5764,8.8439,critically endangered,300,1982,Ethnologue
01737,,Bakpinka,,Nigeria,NG,,5.3644,8.2397,critically endangered,3416,2000,"Ethnologue, Roger Blench"
00076,,Baldemu,Baldamu,Cameroon,CM,,10.5742,14.5623,critically endangered,3,2003,Ethnologue
02675,,Baleasang,Baleasan,Indonesia,ID,"Sulawesi, Indonesia",-0.0494,119.6850,definitely endangered,3000,2000,Grimes 2000
03224,,Balti,"Bälti, sBalti",India; Pakistan,IN;PK,,35.0659,76.1901,vulnerable,,,
02022,,Bambassi,"Bambeshi, Mao",Ethiopia,ET,,9.7469,34.7662,definitely endangered,5000,1982,Michael Ahland (ongoing research)
00691,,Bana,Phana’,Lao People’s Democratic Republic,LA,,20.4836,100.3161,severely endangered,200,1995,
01858,,Banat Bulgarian,,Romania; Serbia,RO;RS,Banat region on both sides of the Romanian-Serbian border; also resettled in Bulgaria; an outlying dialect of Bulgarian,45.4832,20.9069,definitely endangered,25000,"2002 Duli_enko, possibly inflated","Aleksandr D. Duli_enko: Banater Bulgarisch. — Lexikon der Sprachen des europäischen Ostens. Herausgegeben von Milo_ Okuka unter Mitwirkung von Gerald Krenn. Wieser Enzyklopädie des europäischen Ostens 10; Klagenfurt: Wieser, 2002. 203–208."
02119,,Banawá Yafi,,Brazil,BR,,-6.6427,-64.5996,vulnerable,100,"1999 pop=100, ISA, appear to generally speak the language","Databank Moore, 2008."
01637,,Bandial,,Senegal,SN,,12.5317,-16.1553,vulnerable,10125,2002,"Ethnologue, Adjaratou Sall, Tucker Childs"
01954,,Bangani,Ba_g___,India,IN,"Uttarakhand, in the Garhwal area known as ’Bangan’",29.8692,79.0686,critically endangered,12000,2001 Van Driem; sometimes regarded as a dialect of Garhwali,
01288,,Bangni,"Bangru, Bengru, Nyishi, Nishi, Nisi",India,IN,Kurung Kumey Dt.,28.0331,93.0651,vulnerable,20000,"2001, reasonably good estimate",
02530,,Bangsa,,Vanuatu,VU,Malekula,-16.1460,167.3890,critically endangered,10,2000,Lynch & Crowley 2001
00869,,Baniva,Baniwa. Baniva del Guainía,Venezuela (Bolivarian Republic of),VE,"Moroa and San Fernando de Atibapo. Puerto Ayacucho (Territorio de Amazonas, Venezuela).",2.8333,-67.5219,severely endangered,500,,Mosonyi and Mosonyi (2000). Manual de lenguas indígenas de Venezuela.
02120,,Baníwa do Içana,"Baniua, Baniva, Walimanai, Wakuenai",Brazil; Colombia; Venezuela (Bolivarian Republic of),BR;CO;VE,,1.2743,-68.2910,vulnerable,5811,"2002; 2005 pop=5811, Dsei/Foirn/ISA","Databank Moore, 2008."
00309,,Banjima,"Panytyima, Pandjima, Panjtjima, Bandjima, Panjima, Panyjima",Australia,AU,,-22.2890,119.3774,severely endangered,50,"NILS Report 2005Reliable & recent (+/- 20%)",
01825,,Banka,Bankagooma,Mali,ML,,11.4261,-5.6744,definitely endangered,2500,"Ethnic group: 5,085, but no longer spoken be community members in towns.Ethnologue 1995","Ethnologue, Roger Blench"
01264,,Bantawa,_______; ________; _______; Bantaba; Bontawa,Nepal,NP,"Bhojur district in Nepal.Bantawa Rai that migrated to Sikkim, India, can be mainly found in the West District (Youksom, Tashiding, Geyzing, Dentam, Rinchenpong, Soreng, Jorthang), South District (Ralong, Damthang, Namchi, Temi, Tarku, Melli) and in the East District (Gangtok, Badong, Rumtek, Pakyong, Rehnok, Regu, Rolep Assam Lingjey).",27.0994,87.0048,vulnerable,371056,"2001 Census of Nepal. In the 2001 Census of India, Rai in general is shown to have 8856 speakers in Sikkim and 3862 Arunachal. It is obvious that some of them are Bantawa speakers.","Driem, George van. 2001. Languages of the Himalayas. Volumes 1 and 2. Hand-book of Oriental Studies. Section Two: India. Leiden/Boston/Köln: Brill.Driem, George van. 2007. ’South Asia and the Middle East’, pp. 283-347 in Christopher Moseley (ed.) Encyclopedia of the World’s Endangered Languages. London/New York: Routledge.ethnologue.com"
02122,,Bara (Brazil),"Waípinõmakã, Waimajã",Brazil,BR,,0.3515,-68.9721,vulnerable,21,"2001; 2005 pop=21, Dsei/Foirn/ISA","Databank Moore, 2008."
02367,,Bara (Colombia),"Barasano del norte, Bará-maxsá, Posánga-mira, wáimaja, waimasa",Colombia,CO,"Ubicados a lo largo de los caños Yapú, Inambú y Macucú en las cabeceras de Caño Colorado y del río Papurí y en el río Tiquié (Departamento de Vaupés). Población total 500 personas",0.0500,-70.1733,critically endangered,100,2005 - Alain Fabre,"2005 - Fabre, Alain. Diccionario etnolingüístico y guía bibliográfica de los pueblos indígenas suramericanos - Familia Tukano2000 - Gomez-Imbert, Elsa ""Lenguas aborígenes de la Amazonía septentrional de Colombia"" en González & Rodríguez, Lenguas indígenas de Colombia: una visión descriptiva. Instituto Caro y Cuervo. Santafé de Bogotá."
01667,,Baraba Tatar,,Russian Federation,RU,the Baraba steppes in the western parts of Novosibirsk Province; an outlying dialect of Tatar not listed at all by the SIL,55.2478,77.8930,severely endangered,,"not known exactly; according to _________, spoken by older generations of the ethnic group of 8,000 people","_. _. _________: ____ ___________ _____ (_________ _ ____________). _________: _____, 1981."
00596,,Bar_m,____; B_l Kur_; Baraamu; Barhamu; Brahmu; Bhramu; Bramu; Baram,Nepal,NP,Enclave in Gorkh_ district in central Nepal,28.0410,84.6290,critically endangered,342,2001 census (van Driem 2007: few speakers),"Driem, George van. 2001. Languages of the Himalayas. Volumes 1 and 2. Hand-book of Oriental Studies. Section Two: India. Leiden/Boston/Köln: Brill.Driem, George van. 2007. ’South Asia and the Middle East’, pp. 283-347 in Christopher Moseley (ed.) Encyclopedia of the World’s Endangered Languages. London/New York: Routledge.ethnologue.com"
02676,,Baras,Ende,Indonesia,ID,"Sulawesi, Indonesia",-1.8838,119.3774,severely endangered,200,2000,Grimes 2000
00755,,Barasana (Brazil),"Barasano, Pãnerã, Hanera, Panenoá",Brazil,BR,"Indigenous lands Alto Rio Negro, north-western Amazonas State - Brazil",0.7909,-68.6425,severely endangered,34,"2005 pop=34, Dsei/Foirn/ISA","Moore, 2008, IBGE databank Moore, 2008, Scientific American (Brasil) www.socioambiental.org"
02369,,Barasana (Colombia),"Barasano del sur, Janera, Pãnerã, Paneroa, Eduria, Edulia, Erulia",Colombia,CO,"En Colombia en el río Pirá-Paraná, Caño Colorado, Caño Tatú y el Caño Piedra (Departamento del Vaupés). En Brasil noroeste del estado de Amazonas.",0.0769,-70.3894,critically endangered,400,"1993 - Ardila, Olga","Gómez-Imbert, Elsa. 2000. “Introducción al estudio de las lenguas del Pirá-Paraná” en María Stella González de Pérez y María Luisa Rodríguez de Montes (coordinadoras) Lenguas indígenas de Colombia. Una visión descriptiva. Bogotá: Instituto Caro y Cuervo. 321-356.Ardila, Olga. 1993. La subfamilia lingüística Tucano-oriental: estado actual y perspectivas de investigación. Biblioteca Uricoechea 11. Páginas 219-233."
01123,,Barbareño,,United States of America,US,,34.4227,-119.7039,extinct,0,The speaker Barbareño Chumash died in 1965.,"Victor Golla, Ives Goddard, Lyle Campbell, Marianne Mithun, and Mauricio Mixco. 2007. North America. Atlas of the World’s Languages (2nd. edition), ed. by R.E. Asher and C.J. Moseley, 7-44. London: Routledge."
00240,,Bardi,,Australia,AU,,-16.9307,122.8710,severely endangered,30,"NILS Report 2005Reliable & recent (+/- 20%)",
00426,,Baré (Brazil),Hanera,Brazil,BR,"Indigenous lands Alto Rio Negro, Marabitanas/Cue Cue, Médio Rio Negro I, Médio Rio Negro II, Rio Téa north-western Amazonas State, Xié river area - Brazil",0.4394,-68.2031,critically endangered,2,"2005, pop=10275, Dsei/Foirn/ISA, only semi-speakers","Moore, 2008, IBGE databank Moore, 2008, Scientific American (Brasil) www.socioambiental.org"
02332,,Baré (Venezuela),Casiquiare variety is also called Mandawaka.,Venezuela (Bolivarian Republic of),VE,"San Carlos de Río Negro, Solano and Santa Rosa de Amanadona on the Casiquiare and the Río Negro (Territorio de Amazonas, Venezuela)",1.4280,-66.9287,critically endangered,,,"Mosonyi and Mosonyi (2000), ’Manual de lenguas indígenas de Venezuela’González Ñáñez, in Queixalos and Renault-Lescure (2000), ’As línguas amazónicas hoje’."
00427,,Barí,Dobocubi. Motilones (not to be confused with the Yukpa).,Colombia,CO,"Sierra de Motilones and Catatumbo river area (state of Norte de Santander, Colombia; state of Zuilia, Venezuela).",9.0261,-73.2678,vulnerable,5000,,"M. Brenzinger, ’Language Diversity Endangered’ (2007).R. Arango and E. Sánchez, ’Los pueblos indígenas de Colombia’ (2004)."
01779,,Bartangi,________,Tajikistan,TJ,Bartang valley of Rushan district in Gorno Badakhshan Autonomous Region of Tajikistan.,38.0480,71.8286,severely endangered,5000,The estimate is based on 2003 official census,"Elnazarov, A (2006) ’Multilingualism in Pamir: Challenges of Preservation and Revitalisation’ in Proceedings of the FEL X Conference ’Vital Voices: Endangered Languages and Multilingualism. Mysore, India"
02591,,Barzani Jewish Neo-Aramaic (Iraq),"Lishan Didan, Lishan Dideni, Judeo-Aramaic, Jewish Northeastern Neo-Aramaic",Iraq,IQ,"Province of Irbil, Iraqi Kurdistan",36.2619,43.9892,extinct,0,H. Mutzafi (p.c.),"H. Mutzafi (p.c.)Mutzafi, H. The Jewish Neo-Aramaic Dialect of Koy Sanjaq (Iraqi Kurdistan)Semitica Viva 32, Wiesbaden: Harrassowitz, 2004."
02557,,Barzani Jewish Neo-Aramaic (Israel),"Lishan Didan, Lishan Dideni, Judeo-Aramaic, Jewish Northeastern Neo-Aramaic",Israel,IL,Jerusalem and vicinity. Population originally immigrated from the province of Irbil in Iraqi Kurdistan.,31.7888,35.1947,critically endangered,20,"2004 (H. Mutzafi); 15-20 in 2008 estimate (H. Mutzafi, p.c.), all over the age of 70",H. Mutzafi (2004 and personal communication)
02423,,Basay,Kawanuwan,China,CN,Taiwan Province,25.1378,121.6543,extinct,0,recently extinct,
02703,,Bashkardi,Bashaka,Iran (Islamic Republic of),IR,"Eastern Hormozgan, Southern Kerman, and possibly southwestern Sistan and Baluchistan provinces.",28.5169,57.7551,definitely endangered,7000,2000,"Gordon, Raymond G., Jr. (ed.), 2005. Ethnologue: Languages of the World, Fifteenth edition. Dallas, Tex.: SIL International. Online version: http://www.ethnologue.com/."
02203,,Bashkarik,Gawri; Kalami; Kalkoti (dialect),Pakistan,PK,"Headwarters of Swat river and Panjkora valley, Swat district, Pakistan",35.2893,72.6168,severely endangered,1500,"approximate, taken from Encyclopaedia of World Endangered Languages, ed. by Christopher Moseley. 2007","Dr. George van Driem in Encyclopaedia of World Endangered Languages, ed. by Christopher Moseley. 2007"
00488,,Bashkir,Bashkort,Russian Federation,RU,the Republic of Bashkortostan and adjacent regions,54.7309,55.9863,vulnerable,1379727,2002 census,"_. _. _______: __________ ____. — _____ ____: ________ _____. ______: ______, 1997. 206–216."
00578,euskara,Basque,,France; Spain,FR;ES,"Basque Autonomous Region (the provinces of Bizkaia, Gipuzkoa and Araba) and the autonomous province of Navarre, Spain; Labourd, Basse-Navarre and Soule in the department of Pyrénées-Atlantiques, France",43.1330,-2.0764,vulnerable,660000,"Trask 1997 total estimate of native speakers according to the 1991 census; Hualde & Ortiz de Urbina: 700,000 speakers; severely endangered in France with fewer than 80,000 speakers","R. L. Trask: The history of Basque. London: Routledge, 1997. | José Ignacio Hualde & Jon Ortiz de Urbina: A grammar of Basque. Mouton Grammar Library 26; Berlin: Mouton de Gruyter, 2003."
01644,,Bassari,,Senegal,SN,"Spoken in Senegal, Guinea and Guinea-Bissau.",12.4419,-12.6617,vulnerable,17910,2002,"Tucker Childs, Ethnologue, Adjaratou Sall"
02632,,Bataan Ayta,,Philippines,PH,,14.4324,120.4788,definitely endangered,500,2000,
02635,,Batak,,Philippines,PH,,10.1081,119.0000,definitely endangered,200,2000,
02689,,Batek,"Mintil dialect; Minriq, Mindriq or Mendriq dialect",Malaysia,MY,,4.6695,102.5051,critically endangered,700,,Bradley 2007
02199,,Bateri,"Bateri Kohistani, Batera Kohistani, Baterawal, Baterawal Kohistani",Pakistan,PK,"Batera, in east bank of the Indus River, Kohistan District, Pakistan",34.9073,72.8675,definitely endangered,29000,2000 census,"Rensch, Calvin R., Sandra J. Decker, and Daniel G. Hallberg. 1992. Languages of Kohistan._ Sociolinguistic Survey of Northern Pakistan, 1. Islamabad: National Institute of Pakistan Studies, Quaid-i-Azam University and Summer Institute of Linguistics. xxi, 263 p."
02470,,Bathari,"Bahtariyet, Bothari",Oman,OM,"Bay of Kuria Muriya, on the south-western coast of Oman in the Jezir area, in Shuwaimiyya , between Hasik and Ras Sharbitat. They are fishermen.",17.8846,55.5853,critically endangered,300,Morris 1983 (data from fieldwork). Ethnologue gives 400,"Morris 1983Johnstone 1987, xi"
00063,,Bati,,Cameroon,CM,,4.2012,10.7858,severely endangered,800,1975,"Census, Ethnologue"
01357,,Bats,Batsbi; Tsova-Tush,Georgia,GE,the village of Zemo-Alvani in Akhmeta County,42.0982,45.0878,severely endangered,500,"Atlas of Caucasian Languages estimate; the commonly cited figure 3,000 seems thus grossly inflated; cf. ________ 1997","_. _. ________: __________ ____. — _____ __________ _________ _ ________ __________: ____________ I. ______: _____, 1997."
02283,,Baure,,Bolivia,BO,,-13.1008,-64.5007,critically endangered,55,,"S. Danielsen (2007), ’Baure’."
01333,,Bavarian,,Austria; Czech Republic; Germany; Hungary; Italy; Switzerland,AT;CZ;DE;HU;IT;CH,"Upper Bavaria, Lower Bavaria and the Upper Palatinate in Bavaria, Germany; all of Austria except the state of Vorarlberg and parts of the Reutte district in Tyrol; the village of Samnaun in Graubünden, Switzerland; the province of South Tyrol, Italy",48.4146,12.6123,vulnerable,,"not available, but in the range of millions",
01515,,Bawm,"Chin, Bawm",Bangladesh; India,BD;IN,"Mizoram: Chhimtuipui, Lunglei, and Aizawl districts; Tripura; and Assam",22.1874,92.6477,definitely endangered,14000,estimate for all countries ; Ethnologue figure for 2001,
02469,,Bay Islands Creole,,Honduras,HN,Bay Islands; Trujillo and La Ceiba in northern Honduras,16.3297,-86.5299,critically endangered,,"Number of speakers hard to estimate due to the fact that speakers look down upon their own language because outsiders despise it. See Herzfeld (in press) Graham (1997), Herzfeld (1997)",Herzfeld (in press)
02043,,Baygo,Beygo,Sudan,SD,,11.7436,24.6423,extinct,0,1978,Ethnologue
01641,,Bayot,,Senegal,SN,,12.4218,-16.4149,vulnerable,17150,2002,"Ethnologue, Adjaratou Sall, Tucker Childs"
00115,,Bayso,,Ethiopia,ET,,6.4081,37.7490,definitely endangered,2000,1995,Matthias Brenzinger
02783,,Beaver,,Canada,CA,Spread over 5 communities in Canada,56.4810,-121.8831,definitely endangered,195,"2001 Census – based; average age: 42,6","1996 and 2001 Censuses, Statistics Canada; based on the Department of Canadian Heritage customized census retrievalsUNESCO Atlas 2nd edition (Wurm (2001))Ethnologue: Languages of the World (Gordon, (2005))http://www.aboriginalcanada.gc.ca/acp/community/site.nsf/index_en.htmlhttp://en.wikipedia.org/wiki/Portal:Contents"
03028,,Bedoanas,,Indonesia,ID,Irian Jaya,-2.7263,132.5582,vulnerable,180,2000 Wurm,"Wurm, Stephen A. 2007. ’Australia and the Pacific’, pp. 424-557 in Christopher Moseley (ed.) Encyclopedia of the World’s Endangered Languages. London/New York: Routledge."
00150,,Beeke,,Democratic Republic of the Congo,CD,,0.9997,28.7951,severely endangered,1000,1994,"Bruce Connell, Ethnologue"
01747,,Beezen,,Cameroon,CM,,6.7518,10.0744,severely endangered,400,2007,Bruce Connell
02044,,Belanda Bor,De Bor,Sudan,SD,,6.4954,27.7404,definitely endangered,8000,1983,Ethnologue
00489,,Belarusian,,Belarus; Latvia; Lithuania; Poland; Russian Federation; Ukraine,BY;LV;LT;PL;RU;UA,Belarus except the Polesian-speaking south-west as well as adjacent regions of neighbouring countries,53.9560,27.5756,vulnerable,4000000,estimate of active users based on various sources,"Hienad_ Cychun: Weißrussisch. — Lexikon der Sprachen des europäischen Ostens. Herausgegeben von Milo_ Okuka unter Mitwirkung von Gerald Krenn. Wieser Enzyklopädie des europäischen Ostens 10; Klagenfurt: Wieser, 2002. 563–579."
02045,,Beli,,Sudan,SD,,6.4736,29.2675,definitely endangered,6600,1982,Ethnologue
02784,,Bella Coola,Nuxalk,Canada,CA,Spread over 1 communities in Canada,52.3823,-126.7255,critically endangered,50,"2001 Census – based; average age: 57,1","1996 and 2001 Censuses, Statistics Canada; based on the Department of Canadian Heritage customized census retrievalsUNESCO Atlas 2nd edition (Wurm (2001))Ethnologue: Languages of the World (Gordon, (2005))http://www.aboriginalcanada.gc.ca/acp/community/site.nsf/index_en.htmlhttp://en.wikipedia.org/wiki/Portal:Contents"
01925,,Bellari,"Pengu; Hengo",India,IN,Karnataka,11.6952,76.4648,critically endangered,,"unknown",
02094,,Benga,,Equatorial Guinea; Gabon,GQ;GA,,0.9997,9.8657,definitely endangered,3000,1995,Ethnologue
02735,,Benggoi,,Indonesia,ID,Maluku,-3.0748,130.0918,definitely endangered,320,2000,Grimes 2000
02490,,Bepour,,Papua New Guinea,PG,Madang,-4.5860,145.4184,severely endangered,57,2000,Grimes 2000
02004,,Berakou,,Chad,TD,,12.8492,15.0320,extinct,0,2008,Ethnologue
02435,,Berbice Dutch Creole,,Guyana,GY,,5.3918,-57.7770,critically endangered,,,"S. Kouwenberg (1993), ’Berbice Dutch’."
02046,,Berti,,Sudan,SD,,14.6898,25.9524,extinct,0,?,Ethnologue
01985,,Besme,"Huner, Hounar, Bodor",Chad,TD,,9.6386,16.0180,severely endangered,1228,1993,Ethnologue
02677,,Besoa,,Indonesia,ID,"Sulawesi, Indonesia",-1.7163,120.4211,vulnerable,3000,2000,Grimes 2000
01358,,Bezhta,Kapucha,Russian Federation,RU,"the villages of Bezhta, Tlyadal, and Khasharkhota in Tsunta County in the Republic of Daghestan",42.1369,46.1508,definitely endangered,6461,2002 census,"_. _. _______: __________ ____. — _____ __________ _________ _ ________ __________: ____________ I. ______: _____, 1997."
01912,,Bhadravahi,Bhadr_v_h_; Baderwali; Badrohi; Bhaderbhai Jamu; Bhaderwali Pahari; Bhadrava; Bhadri; Bahi,India; Pakistan,IN;PK,"Jammu and Kashmir, Bhadrawah region",33.5413,76.3330,definitely endangered,66918,Census 2001; often includes Bhalesi speakers,
01955,,Bhalesi,Bhales_,India,IN,Jammu and Kashmir,33.3947,76.1352,definitely endangered,,unknown number of speakers; sometimes regarded as a dialect of Bhadravahi,
01897,,Bharmauri,Gaddyali; Gadiali; Gadi; Bharmauri Bhadi; Pahari Bharmauri,India,IN,Himachal Pradesh,32.4912,76.8383,definitely endangered,3976,,
01539,,Bhumji,,India,IN,"scattered over Bihar, Orissa, Jharkhand and Chattisgargh",21.8003,86.8139,vulnerable,47000,"estimate, India Census 2001; van Driem 2007c gives 150000",
03033,,Biak,,Indonesia,ID,Irian Jaya,-0.3076,131.2207,vulnerable,30000,2000 Wurm,"Wurm, Stephen A. 2007. ’Australia and the Pacific’, pp. 424-557 in Christopher Moseley (ed.) Encyclopedia of the World’s Endangered Languages. London/New York: Routledge."
03149,,Bierebo,,Vanuatu,VU,Epi Island,-16.6539,168.1539,vulnerable,350,2000,"Wurm, Stephen A. 2007. ’Australia and the Pacific’, pp. 424-557 in Christopher Moseley (ed.) Encyclopedia of the World’s Endangered Languages. London/New York: Routledge."
02527,,Bieria,,Vanuatu,VU,Epi,-16.8045,168.2446,critically endangered,25,2000,Lynch & Crowley 2001
01512,,Biete,"Baite, Bete, Biate",India,IN,Karbi Anglong Dt.,25.6514,93.2409,definitely endangered,19000,Ethnologue figure for 1997,"See van Driem Languages of the Himalayas, 2001, p. 589"
02479,,Bikaru,,Papua New Guinea,PG,East Sepik Province,-4.8000,143.0000,severely endangered,100,2000,Grimes 2000
01742,,Bikya,,Cameroon,CM,,6.8309,10.0277,critically endangered,1,1986 (more than 70 years old),"R. Breton, Bruce Connell 2007"
02480,,Bilakura,,Papua New Guinea,PG,Madang Province,-4.9404,145.5303,critically endangered,34,2000,Grimes 2000
03170,,Bina,,Papua New Guinea,PG,"Southeastern hinterland, eastern part of central Province",-10.2365,149.6063,extinct,0,2000,"Wurm, Stephen A. 2007. ’Australia and the Pacific’, pp. 424-557 in Christopher Moseley (ed.) Encyclopedia of the World’s Endangered Languages. London/New York: Routledge."
00087,,Birgid,Birkit,Sudan,SD,,14.8598,25.0103,extinct,0,?,Ethnologue
01540,,Birhor,,India,IN,"Simhabhum, Hazaribag, Palamu and Ranci districts of Jharkhand",21.7594,85.9350,critically endangered,2000,van Driem 2007c; Ethnologue gives 10000,
00085,,Birri,Viri,Central African Republic,CF,,5.4902,26.8505,critically endangered,200,1996,Ethnologue
01913,,Bishnupriya Manipuri Creole,Bishnupuriya; Bisna Puriya; Bishnupria Manipuri,Bangladesh; India,BD;IN,"Assam (Cachar, Hailakandi, Karimganj), Manipur, Tripura",24.2970,92.4499,vulnerable,72899,Census 2001; full Bishnupuriya figure: 77545. Ethnologue: 75000 in India (1997). Population total all countries: 115000,
01743,,Bishuo,,Cameroon,CM,,6.9032,10.0991,critically endangered,1,1986: 1 Speaker R.Breton (older than 60 years),"R. Breton, Bruce Connell 2007"
00692,,Bisu,"Hpyin, Hpyen, Laopin",Myanmar; Thailand,MM;TH,,19.7150,99.6789,definitely endangered,2740,2002,
03137,,Blablanga,"Gema, Goi",Solomon Islands,SB,Santa Isabel,-8.2060,159.4638,vulnerable,600,1990,"Wurm, Stephen A. 2007. ’Australia and the Pacific’, pp. 424-557 in Christopher Moseley (ed.) Encyclopedia of the World’s Endangered Languages. London/New York: Routledge."
01265,,Black Mountain,Olekha; Monpa; Mönpa; Ole Mönpa,Bhutan,BT,"Black Mountains of central Bhutan.Villages: Riti, Rukha, Cungseng, Berti, Wangling, Jangbi and Phumz’ur",27.1955,90.4300,definitely endangered,500,1991,"Driem, George van. 1991. Report on the First Linguistic Survey of Bhutan. Thimphu: Royal Government of Bhutan.Driem, George van. 2001. Languages of the Himalayas. Volumes 1 and 2. Hand-book of Oriental Studies. Section Two: India. Leiden/Boston/Köln: Brill.Driem, George van. 2007. ’South Asia and the Middle East’, pp. 283-347 in Christopher Moseley (ed.) Encyclopedia of the World’s Endangered Languages. London/New York: Routledge."
02785,,Blackfoot (Canada),,Canada,CA,Spread over 3 communities in Canada,49.3535,-113.2884,definitely endangered,2200,"2001 Census – based; average age: 46,4","1996 and 2001 Censuses, Statistics Canada; based on the Department of Canadian Heritage customized census retrievalsUNESCO Atlas 2nd edition (Wurm (2001))Ethnologue: Languages of the World (Gordon, (2005))http://www.aboriginalcanada.gc.ca/acp/community/site.nsf/index_en.htmlhttp://en.wikipedia.org/wiki/Portal:Contents"
01799,,Blackfoot (United States of America),Pikanii,United States of America,US,,48.5699,-113.0918,definitely endangered,1000,"1990",Golla et al. ms.
02678,,Boano,Bolano,Indonesia,ID,"Sulawesi, Indonesia",0.4724,120.9979,vulnerable,2000,2000,Grimes 2000
01555,,Bodo,"Boro, Kachari",India,IN,"north bank of the Brahmaputra, Sonitpur and Darrang districts",26.7554,92.8674,vulnerable,900000,estimate; halfway btw India Census 2001 and Ethnologue for 1997,
00098,,Boguru,,Democratic Republic of the Congo; Sudan,CD;SD,,4.3902,29.2016,critically endangered,494,?,Ethnologue
01961,,Bohtan Neo-Aramaic,,Georgia; Russian Federation,GE;RU,"originally the Plain of Bohtan in Sirnak Province of south-eastern Turkey, now mostly around the village of Garbadani, near Rustavi, Georgia; an outlying dialect of Suret",41.5579,45.0219,severely endangered,1000,1999 Fox quoted from the Ethnologue,
01293,,Bokar,Adi,China; India,CN;IN,"scattered villages in West Siang Dt., west of Tuting.",28.8735,94.3807,vulnerable,5000,"2001, rough estimate",
02920,,Bola,"Pola, Bela",China,CN,,25.0638,98.2414,definitely endangered,1000,2000,Bradley 2007
00164,,Bolo,,Angola,AO,,-10.5526,14.9633,definitely endangered,2627,2000,Ethnologue
01649,,Bom,,Sierra Leone,SL,,7.3188,-11.9915,severely endangered,20,2008,Tucker Childs
01769,,Bonan,Bao’an,China,CN,"two communities: the Buddhist Bonan speakers, officially registered as belonging to the Monguor (Tu) nationality, in the villages of gNyan.thog, sGo.dmar and sKa.gsar in Tongren County of Huangnan Tibetan Autonomous District, Qinghai; the Islamic Bonan speakers, officially recognized as a distinct Bonan (Baoan) nationality, in the villages of Ganhetan, Dadun and Lijiacun in Dahejia Township of Dongxiang Salar Jishishan Autonomous County of Linxia Hui Autonomous District, Gansu",36.0890,102.8430,definitely endangered,15000,"estimate based on Wu Hugjiltu 2003: c.12,200 in ethnic group in Gansu in 1990, use of the native language declining; perhaps 3.500 people in Qinghai in 1980, linguistically vigorous","Wu Hugjiltu: Bonan. — The Mongolic languages. Edited by Juha Janhunen. London and New York: Routledge, 2003. 325–345."
03029,,Bonerif,,Indonesia,ID,Irian Jaya,-2.1088,139.2352,critically endangered,4,1994 SIL,"Wurm, Stephen A. 2007. ’Australia and the Pacific’, pp. 424-557 in Christopher Moseley (ed.) Encyclopedia of the World’s Endangered Languages. London/New York: Routledge."
00130,,Bong’om,,Kenya,KE,Near the Ugandan-Kenyan border.,1.1315,35.0134,definitely endangered,1000,2007,
03030,,Bonggo,,Indonesia,ID,Irian Jaya,-2.2461,139.5208,severely endangered,200,2007 Wurm,"Wurm, Stephen A. 2007. ’Australia and the Pacific’, pp. 424-557 in Christopher Moseley (ed.) Encyclopedia of the World’s Endangered Languages. London/New York: Routledge."
00089,,Bongo,Dor,Sudan,SD,,6.1405,31.7999,definitely endangered,10084,2000,Ethnologue
00135,,Boni,"Aweera, Waata, Sanye",Kenya,KE,Somalia-Kenyan border area.,-0.8294,40.8142,definitely endangered,3000,1990,Bernd Heine
02015,,Bonjo,,Congo,CG,,1.7712,17.9598,severely endangered,3000,2000,Bruce Cornell 2007
01989,,Boor,,Chad,TD,,10.2149,17.3721,critically endangered,100,1999,Ethnologue
00951,,Bora,Bóóráá,Colombia; Peru,CO;PE,"Departamento de Loreto, cuenca del río Yahuasyaco. El poblado de Brillo Nuevo es el centro del territorio Bora en el Perú. También hay boras en Colombia.",-2.7455,-71.8835,vulnerable,1000,El Censo del Perú de 1993 dio la cifra de 883 personas. Nuestros datos de campo de 1998 arrojaban 1000 miembros del pueblo bora.,www.inei.gob.pe para el censo de 1993 en el Perú
01294,,Bori,Adi,China; India,CN;IN,"West Siang Dt., between Siang and Siyom river valleys",28.9889,94.4439,definitely endangered,2000,"2001, rough estimate",
00017,,Boro,,Togo,TG,,8.6244,0.6262,extinct,0,?,Roger Blench
02031,,Boro,Shinasha,Ethiopia,ET,,10.3581,35.0024,definitely endangered,19878,1998,"Census, Zelealem Leyew"
02158,,Bororo,"Borôro, Eastern Bororo, Coxiponé, Araripoconé, Araés, Cuiabá, Coroados, Porrudos, Boe, Boe Wadaru",Brazil,BR,"Brazil, Mato Grosso State, Terra Indígena Meruri, Terra Indígena Perigara, Terra Indígena Sangradouro-Volta Grande, Terra IndígenaTadarimana, Terra Indígena Jarudori, and Terra Indígena Teresa Cristina. Macro-Ge, Bororo.",-15.5172,-53.1024,definitely endangered,1390,"2006 pop=1392, Funasa/ISA","www.socioambiental.orgFUNASA, 2006Moore, 2008, IBGE databank Moore, 2008, Scientific American (Brasil)"
02230,,Boruca,"Borunca, Burunca, Brunca",Costa Rica,CR,Térraba Valley; coordinates are necessarily imprecise,9.0596,-83.2879,critically endangered,70,"Censo de Población y Vivienda 2000 in internet page of the Centro Centroamericano de Población, Universidad de Costa Rica","Census 2000, Constenla article"
03171,,Bosilewa,Boselewa,Papua New Guinea,PG,"Central north coast of Fergusson Island, Milne Bay Province",-9.4490,150.6610,vulnerable,250,2000,"Wurm, Stephen A. 2007. ’Australia and the Pacific’, pp. 424-557 in Christopher Moseley (ed.) Encyclopedia of the World’s Endangered Languages. London/New York: Routledge."
03172,,Bothar,Rema,Papua New Guinea,PG,"Morehead District, Western Province (Ethnologue locates it rather in Indonesia)",-9.0695,141.1550,severely endangered,68,1980 (Ethnologue rates it as extinct),"Wurm, Stephen A. 2007. ’Australia and the Pacific’, pp. 424-557 in Christopher Moseley (ed.) Encyclopedia of the World’s Endangered Languages. London/New York: Routledge."
01360,,Botlikh,,Russian Federation,RU,the villages of Botlikh and Miarsu in Botlikh County in the Republic of Daghestan,42.6602,46.2222,definitely endangered,4000,1997 _______ estimate; the census figure 90 must be based on a technical error,"_. _. _______: __________ ____. — _____ __________ _________ _ ________ __________: ____________ I. ______: _____, 1997."
02981,,Brahui,,Afghanistan; Iran (Islamic Republic of); Pakistan,AF;IR;PK,"Kalat district and parts of Hyderabad, Karachi and Khairpur districts; also small communities in Afghanistan and Iran",29.0369,66.5826,vulnerable,500000,approximate estimate,"Dr. George van Driem in Encyclopaedia of World Endangered Languages, ed. by Christopher Moseley. 2007"
02948,,Brao,,Cambodia; Lao People’s Democratic Republic; Viet Nam,KH;LA;VN,,14.1177,106.7644,severely endangered,,,
00490,,Breton,brezhoneg,France,FR,western Brittany; many émigré communities,48.2246,-3.9331,severely endangered,250000,estimate based on various sources,
02228,,Bribri (Costa Rica),,Costa Rica,CR,"Southern Atlantic and Pacific slopes of Talamanca range according to Constenla; Cantón of Talamanca, Limón province; cantón of Buenos aires, Punta Arenas province according to Ethnologue",9.5596,-83.3073,vulnerable,5647,"Censo de Población y Vivienda 2000 in internet page of the Centro Centroamericano de Población, Universidad de Costa Rica.Constenla estimates 6,000 speakers","Census 2000, Constenla article and Ethnologue"
02259,,Bribri (Panama),,Panama,PA,Region of Yorkin on the Panama side of the River Sixaola; they travel from one country to the other,9.4813,-82.6174,severely endangered,2521,Censo de Población y Vivienda 2000 in internet page of the Centro Centroamericano de Población of the University of Costa Rica,"Census 2000, recent article by Ana Montalván"
01574,,Brokkat,Brokskad; Jokay,Bhutan,BT,"Bumthang district, Dur village",27.5618,90.6152,definitely endangered,300,1991,"Driem, George van. 1991. Report on the First Linguistic Survey of Bhutan. Thimphu: Royal Government of Bhutan.Driem, George van. 2001. Languages of the Himalayas. Volumes 1 and 2. Hand-book of Oriental Studies. Section Two: India. Leiden/Boston/Köln: Brill.Driem, George van. 2007. ’South Asia and the Middle East’, pp. 283-347 in Christopher Moseley (ed.) Encyclopedia of the World’s Endangered Languages. London/New York: Routledge.ethnologue.com"
01575,,Brokpa,Brokpake; Sagtenpa,Bhutan,BT,"Sakteng valley, ’Wangdi Phodr’a district",27.3766,91.9981,definitely endangered,5000,1991,"Driem, George van. 1991. Report on the First Linguistic Survey of Bhutan. Thimphu: Royal Government of Bhutan.Driem, George van. 2001. Languages of the Himalayas. Volumes 1 and 2. Hand-book of Oriental Studies. Section Two: India. Leiden/Boston/Köln: Brill.Driem, George van. 2007. ’South Asia and the Middle East’, pp. 283-347 in Christopher Moseley (ed.) Encyclopedia of the World’s Endangered Languages. London/New York: Routledge.ethnologue.com"
02980,,Brokshat,Brokskat; Brokpa,India,IN,"Ladakh and Kargil districts, northern Kashmir",34.6478,76.4978,definitely endangered,3000,1981 census,
02360,,Bru,,Thailand,TH,,15.3174,105.4938,definitely endangered,20000,,
01762,,Bubia,,Cameroon,CM,,4.0204,9.2037,severely endangered,600,1977,Voegelin & Voegelin 1977
03173,,Budibud,,Papua New Guinea,PG,"Lachlan Islands, 150km est of Woordlark Island, Milne Bay Province",-9.2973,153.6891,vulnerable,120,2000,"Wurm, Stephen A. 2007. ’Australia and the Pacific’, pp. 424-557 in Christopher Moseley (ed.) Encyclopedia of the World’s Endangered Languages. London/New York: Routledge."
02679,,Budong-Budong,Tangkou,Indonesia,ID,"Sulawesi, Indonesia",-2.0601,119.3074,critically endangered,50,2000,Grimes 2000
01361,,Budukh,Budug; _________,Azerbaijan,AZ,the village of Budukh and the expatriate communities of Deli-Kaya and Pirusti in Kuba (Quba) County,41.1207,48.3233,severely endangered,3000,1997 ______ estimate,"_. _. ______: _________ ____. — _____ __________ _________ _ ________ __________: ____________ I. ______: _____, 1997."
00100,,Buga,Mangayat,Sudan,SD,,8.2495,25.7574,critically endangered,400,1987,Ethnologue
02256,,Buglé,"Guaymí, Buglere, Bokotá",Panama,PA,"Bocas del Toro, Veraguas and Chiriquí",8.5858,-82.3856,definitely endangered,993,Censo de Población y Vivienda 2000 in internet page of the Centro Centroamericano de Población of the University of Costa Rica,"Census 2000, Constenla article"
02029,,Bukharic,"Bukharan, Judeo-Tajik, Bokharic, Bukharin, Bokharian.",Uzbekistan,UZ,"Bukhara city and sorrounding areas, Uzbekistan",39.8043,64.4224,definitely endangered,10000,1995 census,
03174,,Bukiyip,"Arapesh Abu’, Mountain Arapesh, Arapesh Buki, Kavu",Papua New Guinea,PG,"Toricelli mountains, Yangoru District, East Sepik Province",-3.4256,143.0886,vulnerable,10304,2000,"Wurm, Stephen A. 2007. ’Australia and the Pacific’, pp. 424-557 in Christopher Moseley (ed.) Encyclopedia of the World’s Endangered Languages. London/New York: Routledge."
03175,,Bulgebi,,Papua New Guinea,PG,"15km south of Saidor, inland on the eastern end of southern coast of Astrolabe Bay, Madang Province",-5.7485,146.4532,definitely endangered,50,2000,"Wurm, Stephen A. 2007. ’Australia and the Pacific’, pp. 424-557 in Christopher Moseley (ed.) Encyclopedia of the World’s Endangered Languages. London/New York: Routledge."
03166,,Bumbita Arapesh,Weri,Papua New Guinea,PG,"Toricelli mountains, Maprik District, East Sepik Province",-3.6449,142.8002,vulnerable,2353,1994,"Wurm, Stephen A. 2007. ’Australia and the Pacific’, pp. 424-557 in Christopher Moseley (ed.) Encyclopedia of the World’s Endangered Languages. London/New York: Routledge."
01576,,Bumthang,"Bumtanp; Bumtang, Kebumtamp; Bhumtam",Bhutan,BT,Bumthang district,27.4920,90.7159,vulnerable,30000,1991,"Driem, George van. 1991. Report on the First Linguistic Survey of Bhutan. Thimphu: Royal Government of Bhutan.Driem, George van. 2001. Languages of the Himalayas. Volumes 1 and 2. Hand-book of Oriental Studies. Section Two: India. Leiden/Boston/Köln: Brill.Driem, George van. 2007. ’South Asia and the Middle East’, pp. 283-347 in Christopher Moseley (ed.) Encyclopedia of the World’s Endangered Languages. London/New York: Routledge.ethnologue.com"
01504,,Bunan,"Gahri, Punan, Boonan",India,IN,,32.7503,76.2451,definitely endangered,4000,"estimate, Ethnologue figure for 1997",
00242,,Bundjalung,,Australia,AU,,-28.9998,152.9077,severely endangered,20,"NILS Report 2005 quite reliable",
00068,,Bung,,Cameroon,CM,,6.5718,11.8267,critically endangered,3,1995,Bruce Connell 2007
02863,,Bungee,,Canada,CA,,50.0667,-96.9763,critically endangered,,,"1996 and 2001 Censuses, Statistics Canada; based on the Department of Canadian Heritage customized census retrievalsUNESCO Atlas 2nd edition (Wurm (2001))Ethnologue: Languages of the World (Gordon, (2005))http://www.aboriginalcanada.gc.ca/acp/community/site.nsf/index_en.htmlhttp://en.wikipedia.org/wiki/Portal:Contents"
00245,,Bunuba,"Bunaba, Punapa",Australia,AU,,-17.8951,125.7495,severely endangered,40,"NILS Report 2005Somewhat reliable",
02404,,Bunun,,China,CN,Taiwan Province,23.3624,121.1077,vulnerable,10000,,
03031,,Burate,,Indonesia,ID,Irian Jaya,-2.7811,135.9915,severely endangered,100,2000 Wurm,"Wurm, Stephen A. 2007. ’Australia and the Pacific’, pp. 424-557 in Christopher Moseley (ed.) Encyclopedia of the World’s Endangered Languages. London/New York: Routledge."
01683,,Burgenland Croatian,,Austria; Hungary; Slovakia,AT;HU;SK,"Burgenland, Austria: 65 settlements; Gy_r-Moson-Sopron and Vas counties, Hungary: 14 settlements; Bratislava district, Slovakia: 5 settlements; an outlying dialect of Serbo-Croat not listed separately by the SIL",47.8435,16.5179,definitely endangered,30000,"Tornow 2002: 27,000–33,000","Siegfried Tornow: Burgenlandkroatisch. — Lexikon der Sprachen des europäischen Ostens. Herausgegeben von Milo_ Okuka unter Mitwirkung von Gerald Krenn. Wieser Enzyklopädie des europäischen Ostens 10; Klagenfurt: Wieser, 2002. 235–245."
01866,,Burgundian,Morvan; morvandiau; bourguignon-morvandiau,France,FR,Bourgogne; a regional language not recognized by the SIL,47.2344,4.2517,severely endangered,,not available,
00125,,Burji,,Kenya,KE,,2.1857,37.9248,vulnerable,7000,1994,Ethnologue
00156,,Burunge,,United Republic of Tanzania,TZ,,-4.7297,35.7769,vulnerable,10000,2000,Roland Kießling
01947,,Burushaski,"Brushaski, Burushaki, Burucaki, Burushki, Burucaski, Biltum, Khajuna, Kunjut",Pakistan,PK,"Hunza-Nagar area and Yasin area in Gilgit District, Northern Areas of Pakistan",35.9090,74.2153,vulnerable,87000,2000 census,"Backstrom, Peter C. and Carla F. Radloff. 1992. Languages of northern areas. Sociolinguistic Survey of Northern Pakistan, 2. Islamabad: National Institute of Pakistan Studies, Quaid-i-Azam University and Summer Institute of Linguistics. xxiii, 417 p. available athttp://www.sil.org/sociolx/pubs/32840_SSNP02.pdfDr. George van Driem in Encyclopedia of World’s Endangered Languages, ed by Christopher Moseley. 2007"
00682,,Buryat (Cis-Baikal),,Russian Federation,RU,Ust’-Orda (Ust’-Ordynskiy) Buryat Autonomous District and elsewhere in Irkutsk Province,52.7961,104.8809,severely endangered,50000,"estimate for Cis-Baikal Buryat based on the 2002 census: 368,807 speakers of Buryat altogether, which includes a number of Mongolian speakers; cf. Buryat (Trans-Baikal) and Buryat (Manchuria)","Elena Skribnik: Buryat. — The Mongolic languages. Edited by Juha Janhunen. London and New York: Routledge, 2003. 102–128."
00627,,Buryat (Manchuria),,China; Mongolia,CN;MN,"the Barga steppe region in Hulun Buir League in Inner Mongolia, China; north-eastern border regions in Mongolia",49.8096,119.7509,definitely endangered,50000,"estimate based on various sources covering both China and Mongolia; according to Skribnik 2003: 102 there are at least 100,000 ethnic Buryat in the region, but “the general trend is that Buryat is being abandoned in favour of more dominant languages”","Elena Skribnik: Buryat. — The Mongolic languages. Edited by Juha Janhunen. London and New York: Routledge, 2003. 102–128."
00639,,Buryat (Trans-Baikal),,Russian Federation,RU,the Republic of Buryatia and Aga (Aginskiy) Buryat Autonomous District and elsewhere in Chita Province,50.8336,109.5117,definitely endangered,300000,"estimate for Trans-Baikal Buryat based on the 2002 census: 368,807 speakers of Buryat altogether, which includes a number of Mongolian speakers; cf. Buryat (Cis-Baikal) and Buryat (Manchuria)","Elena Skribnik: Buryat. — The Mongolic languages. Edited by Juha Janhunen. London and New York: Routledge, 2003. 102–128."
03124,,Busoa,Tangkou,Indonesia,ID,"Southwest coast of Buton Island, Sulawesi",-5.5722,122.6074,vulnerable,500,1991,"Wurm, Stephen A. 2007. ’Australia and the Pacific’, pp. 424-557 in Christopher Moseley (ed.) Encyclopedia of the World’s Endangered Languages. London/New York: Routledge."
02027,,Bussa,,Ethiopia,ET,,5.7225,37.1406,vulnerable,6624,1998,"Census, Ethnologue, Mauro Tosco (ongoing research)"
01744,,Busuu,,Cameroon,CM,,6.8282,10.1087,critically endangered,8,1986 R. Breton,"R. Breton, Bruce Connell 2007"
02895,,Buyang,,China,CN,,23.4146,105.7632,severely endangered,1200,2000,Bradley 2007
02095,,Bwisi,,Congo; Gabon,CG;GA,,-3.5572,11.4477,definitely endangered,4248,2000,Ethnologue
00599,,Byangsi,_______; _______; Byangshi; Chaudangsi,India; Nepal,IN;NP,Mah_k_l_ river Valley.,30.0595,80.7824,definitely endangered,1734,2001 census,"Driem, George van. 2001. Languages of the Himalayas. Volumes 1 and 2. Hand-book of Oriental Studies. Section Two: India. Leiden/Boston/Köln: Brill.Driem, George van. 2007. ’South Asia and the Middle East’, pp. 283-347 in Christopher Moseley (ed.) Encyclopedia of the World’s Endangered Languages. London/New York: Routledge."
02985,,Caaac,,New Caledonia (France),NC,Pouébo,-20.3883,164.5614,vulnerable,890,1996 Census,Grimes 2000
02232,,Cabécar,,Costa Rica,CR,Atlantic watershed and southern Pacific slopes of the Talamanca range in southern Costa Rica according to Constenla,9.9012,-83.6844,vulnerable,7622,"Censo de Población y Vivienda 2000 in internet page of the Centro Centroamericano de Población, Universidad de Costa RicaConstenla estimate: 8500",Census 2000 and Constenla article
